stop_id,stop_code,stop_name,stop_desc,stop_lat,stop_lon,zone_id,stop_url,location_type,parent_station,stop_timezone,wheelchair_boarding
1,1,Airport & Brooks,AIRPORT RD,43.130536,-77.665754,,,,,,0
3,3,Airport & Terminal Lower Level,AIRPORT RD & EASTSIDE WAY,43.12795,-77.664456,,,,,,0
9,9,Alexander & Gardiner,ALEXANDER ST & GARDINER PARK,43.153318,-77.59522,,,,,,0
10,10,Alexander & Gardiner,273 ALEXANDER ST & CHAPMAN AL,43.153006,-77.595545,,,,,,0
14,14,Alexander & Park,ALEXANDER ST & PARK AVE,43.152352,-77.595927,,,,,,0
17,17,Arnett & Genesee,ARNETT BLVD & GENESEE ST,43.142162,-77.636903,,,,,,0
18,18,Arnett & Kenwood,ARNETT BLVD & KENWOOD AVE,43.142293,-77.639253,,,,,,0
19,19,Arnett & Post,ARNETT BLVD & POST AVE,43.142174,-77.648223,,,,,,0
21,21,Arnett & Rugby,ARNETT BLVD & RUGBY AVE,43.142155,-77.643471,,,,,,0
23,23,Arnett & Wellington,ARNETT BLVD & WELLINGTON AVE,43.142303,-77.640612,,,,,,0
24,24,Arnett & Wellington,ARNETT BLVD & WELLINGTON AVE,43.142175,-77.640896,,,,,,0
25,25,Arnett & Woodbine,ARNETT BLVD & WOODBINE AVE,43.142168,-77.646083,,,,,,0
26,26,Arnett & Woodbine,ARNETT BLVD & WOODBINE AVE,43.142306,-77.645646,,,,,,0
33,33,Backus & 40 Backus,BACKUS ST & PHELPS AVE,43.172908,-77.632279,,,,,,0
37,37,Backus & Bloss,BACKUS ST & BLOSS ST,43.170426,-77.632278,,,,,,0
39,39,Backus & Phelps,BACKUS ST & PHELPS AVE,43.171681,-77.632293,,,,,,0
43,43,Bay & Leedale,COUNTY HWY 16 & LEEDALE DR,43.194867,-77.507617,,,,,,0
45,45,Bay & 1082 Bay,COUNTY HWY 16 & LEEDALE DR,43.201679,-77.51169,,,,,,0
46,46,Bay & 1154 Bay Opp. Avalon,COUNTY HWY 16 & AVALON TRL,43.19688,-77.508833,,,,,,0
48,48,Bay & Ackerman,BAY ST & ACKERMAN ST,43.171078,-77.576399,,,,,,0
49,49,Bay & Baycliff,BAY ST & BAYCLIFF DR,43.171193,-77.576191,,,,,,0
52,52,Bay & Coverly,BAY ST & COVERLY ST,43.171414,-77.562074,,,,,,0
53,53,Bay & Culver,,43.1716,-77.560706,,,,,,0
54,54,Bay & Dorset,BAY ST & DORSET ST,43.171332,-77.570556,,,,,,0
55,55,Bay & Edgeland,BAY ST & EDGELAND ST,43.171466,-77.565257,,,,,,0
56,56,Bay & Ellison,BAY ST & ELLISON ST,43.171248,-77.573921,,,,,,0
57,57,Bay & Ellison,BAY ST & ELLISON ST,43.171129,-77.574338,,,,,,0
59,59,Bay & Empire,COUNTY HWY 16 & UNNAMED ST,43.19076,-77.504487,,,,,,0
60,60,Bay & 5th,BAY ST & 5TH ST,43.170886,-77.583794,,,,,,0
61,61,Bay & 1st,BAY ST & 1ST ST,43.170762,-77.588078,,,,,,0
62,62,Bay & 1st,BAY ST & 1ST ST,43.170868,-77.588038,,,,,,0
63,63,Bay & Goodman,BAY ST & GOODMAN ST N,43.170985,-77.579126,,,,,,0
64,64,Bay & Goodman,BAY ST & GOODMAN ST N,43.171086,-77.579736,,,,,,0
65,65,Bay & Harvest,BAY ST & HARVEST ST,43.170974,-77.583961,,,,,,0
66,66,Bay & High Vista,,43.203032,-77.512002,,,,,,0
71,71,Bay & McKinster,BAY ST & MCKINSTER ST,43.171363,-77.565281,,,,,,0
72,72,Bay & Morton,BAY ST & MORTON ST,43.171285,-77.572739,,,,,,0
76,76,Bay & Salisbury,BAY ST & SALISBURY ST,43.171319,-77.567469,,,,,,0
77,77,Bay & Salisbury,BAY ST & SALISBURY ST,43.17142,-77.567318,,,,,,0
78,78,Bay & 7th,BAY ST & 7TH ST,43.170934,-77.581575,,,,,,0
79,79,Bay & 6th,BAY ST & 6TH ST,43.171043,-77.581834,,,,,,0
85,85,Bay & Webster,,43.171232,-77.569779,,,,,,0
86,86,Bay & Wegmans,COUNTY HWY 16 & UNNAMED ST,43.192132,-77.505666,,,,,,0
88,88,Bay & Wendell,BAY ST & WENDELL ST,43.171164,-77.572664,,,,,,0
93,93,Beach & 411 Beach,BEACH AVE & UNNAMED ST,43.262171,-77.614512,,,,,,0
94,94,Beach & 424 Beach,BEACH AVE & HENLEY ST,43.262418,-77.614614,,,,,,0
96,96,Beach & 770 Beach,BEACH AVE & CLOVERDALE ST,43.266689,-77.62256,,,,,,0
97,97,Beach & Alpha,BEACH AVE & ALPHA ST,43.260434,-77.611611,,,,,,0
98,98,Beach & Alpha,BEACH AVE & ALPHA ST,43.260546,-77.611973,,,,,,0
101,101,Beach & Clematis,BEACH AVE & CLEMATIS ST,43.263223,-77.616031,,,,,,0
103,103,Beach & Estes,BEACH AVE & ESTES ST,43.259091,-77.609392,,,,,,0
104,104,Beach & Greenleaf,BEACH AVE & COUNTY HWY 126,43.267205,-77.6237,,,,,,0
105,105,Beach & Greenleaf,COUNTY HWY 128 & COUNTY HWY 126,43.267375,-77.624224,,,,,,0
108,108,Beach & Kirkwood,COUNTY HWY 128 & KIRKWOOD RD,43.271634,-77.637168,,,,,,0
109,109,Beach & Kirkwood,COUNTY HWY 128 & KIRKWOOD RD,43.27151,-77.637527,,,,,,0
110,110,Beach & Moxon,COUNTY HWY 128 & MOXON DR,43.271068,-77.633486,,,,,,0
111,111,Beach & Moxon,COUNTY HWY 128 & MOXON DR,43.271135,-77.633258,,,,,,0
112,112,Beach & Strathmore,COUNTY HWY 128 & STRATHMORE RD,43.271482,-77.634879,,,,,,0
113,113,Beach & Strathmore,COUNTY HWY 128 & STRATHMORE RD,43.271606,-77.634627,,,,,,0
114,114,Beach & Tamarack,BEACH AVE & TAMARACK ST,43.265653,-77.620452,,,,,,0
115,115,Beach & Tamarack,BEACH AVE & TAMARACK ST,43.265651,-77.620685,,,,,,0
116,116,Beach & Welland,BEACH AVE & WELLAND ST,43.264196,-77.617538,,,,,,0
136,136,Blossom & Beresford,BLOSSOM RD & BERESFORD RD,43.149494,-77.548283,,,,,,0
137,137,Blossom & Blossom Circle,STATE RTE 941V & BLOSSOM CIR W,43.149356,-77.530792,,,,,,0
138,138,Blossom & Bobrich,BLOSSOM RD & BOBRICH DR,43.149284,-77.546494,,,,,,0
139,139,Blossom & Clover,STATE RTE 941V & CLOVER ST,43.149279,-77.534998,,,,,,0
140,140,Blossom & Clover,STATE RTE 941V & CLOVER ST,43.149152,-77.535381,,,,,,0
141,141,Blossom & Croydon,BLOSSOM RD & CROYDON RD,43.149411,-77.545985,,,,,,0
144,144,Blossom & Gas Light,STATE RTE 941V & GAS LIGHT LN,43.149245,-77.542874,,,,,,0
145,145,Blossom & Landing,STATE RTE 941V & LANDING RD N,43.149449,-77.528829,,,,,,0
146,146,Blossom & Mercy High,STATE RTE 941V & CLOVER ST,43.149314,-77.537636,,,,,,0
147,147,Blossom & Mercy High,STATE RTE 941V & CLOVER ST,43.149196,-77.53762,,,,,,0
148,148,Blossom & Newcastle,STATE RTE 941V & NEWCASTLE RD,43.1494,-77.544394,,,,,,0
149,149,Blossom & Newcastle,STATE RTE 941V & NEWCASTLE RD,43.149284,-77.544585,,,,,,0
150,150,Blossom & University,,43.149492,-77.564239,,,,,,0
152,152,Blossom & Winton,BLOSSOM RD & WINTON RD N,43.149386,-77.552065,,,,,,0
153,153,Blossom & Winton,BLOSSOM RD & WINTON RD N,43.14952,-77.552148,,,,,,0
154,154,Blossom & Wyatt,STATE RTE 941V & WYATT DR,43.149516,-77.530004,,,,,,0
155,155,Blossom & Yarmouth,,43.149286,-77.547369,,,,,,0
165,165,Britton & Dewey,COUNTY HWY 101 & STATE HWY 18,43.23658,-77.645333,,,,,,0
166,166,Britton & Glenbrook,COUNTY HWY 101 & GLENBROOK RD,43.236501,-77.63998,,,,,,0
167,167,Britton & Laverne,COUNTY HWY 101 & LAVERNE DR,43.236536,-77.643756,,,,,,0
170,170,Britton & Woodhill,COUNTY HWY 101 & WOODHILL DR,43.236418,-77.635397,,,,,,0
174,174,Broad & Allen,STATE HWY 31 & ALLEN ST,43.156653,-77.624345,,,,,,0
175,175,Broad & Allen,STATE HWY 31 & ALLEN ST,43.156353,-77.623853,,,,,,0
176,176,Broad & Brown,,43.158151,-77.625224,,,,,,0
180,180,Broad & Jay,STATE HWY 31 & JAY ST,43.159266,-77.626688,,,,,,0
181,181,Broad & Jay,STATE HWY 31 & JAY ST,43.159537,-77.62733,,,,,,0
182,182,Broad & Lyell,STATE HWY 31 & JAY ST,43.164034,-77.633671,,,,,,0
183,183,Broad & Lyell,STATE HWY 31 & RAMP,43.163803,-77.633644,,,,,,0
184,184,Broad & Main,,43.154491,-77.620907,,,,,,0
185,185,Broad & Main,STATE HWY 31 & STATE HWY 33,43.154735,-77.620776,,,,,,0
187,187,Broad & Orange,STATE HWY 31 & ORANGE ST,43.158961,-77.626274,,,,,,0
190,190,Broad & Romeyn,STATE HWY 31 & ROMEYN ST,43.158745,-77.626182,,,,,,0
191,191,Broad & Saxton,STATE HWY 31 & SAXTON ST,43.162552,-77.632404,,,,,,0
192,192,Broad & Saxton,STATE HWY 31 & SAXTON ST,43.162483,-77.632058,,,,,,0
193,193,Broad & Smith,STATE HWY 31 & SMITH ST,43.160593,-77.628514,,,,,,0
196,196,Broad & Walnut,STATE HWY 31 & WALNUT ST,43.162005,-77.630693,,,,,,0
204,204,3379 Brockport-Spencerport,STATE HWY 31,43.187728,-77.842376,,,,,,0
205,205,3383 Brockport-Spencerport,STATE HWY 31 & ROLLING ACRE DR,43.187906,-77.842797,,,,,,0
207,207,5370 Brockport-Spencerport,STATE HWY 31,43.193407,-77.890974,,,,,,0
208,208,5370 Brockport-Spencerport,STATE HWY 31,43.193299,-77.891147,,,,,,0
209,209,5747 Brockport-Spencerport,STATE HWY 31,43.198139,-77.906617,,,,,,0
210,210,5747 Brockport-Spencerport,STATE HWY 31,43.197978,-77.906505,,,,,,0
211,211,6460 Brockport-Spencerport,STATE HWY 31,43.198259,-77.940381,,,,,,0
212,212,Brockport-Spencerport & Hubbell,STATE HWY 31 & COUNTY HWY 206,43.188774,-77.874221,,,,,,0
213,213,Brockport-Spencerport & Hubbell,STATE HWY 31 & COUNTY HWY 206,43.188622,-77.874418,,,,,,0
214,214,Brockport-Spencerport & McDonalds,STATE HWY 31 & STATE HWY 19,43.198425,-77.941989,,,,,,0
215,215,Brockport-Spencerport & Owens,STATE HWY 31 & OWENS RD,43.198159,-77.922287,,,,,,0
216,216,Brockport-Spencerport & Owens,STATE HWY 31 & OWENS RD,43.19832,-77.922436,,,,,,0
217,217,Brockport-Spencerprt & Salmon Creek,STATE HWY 31 & UNNAMED ST,43.190048,-77.884454,,,,,,0
218,218,Brockport-Spencerprt & Salmon Creek,STATE HWY 31 & COUNTY HWY 246,43.189939,-77.884738,,,,,,0
219,219,Brockport-Spencrprt & Sweden Walker,STATE HWY 31 & COUNTY HWY 242,43.198068,-77.899679,,,,,,0
220,220,Brockport-Spencrprt & Sweden Walker,STATE HWY 31 & COUNTY HWY 242,43.197907,-77.899616,,,,,,0
223,223,Brockport-Spencerport & Transit,STATE HWY 31 & TRANSIT WAY,43.198381,-77.932281,,,,,,0
224,224,Brockport-Spencerport & Transit,STATE HWY 31 & TRANSIT WAY,43.198228,-77.932564,,,,,,0
225,225,Brockport-Spencerport & Trimmer,STATE HWY 31 & TRIMMER RD,43.186918,-77.82333,,,,,,0
226,226,Brockport-Spencerport & Trimmer,STATE HWY 31 & TRIMMER RD,43.187088,-77.82338,,,,,,0
227,227,Brockport-Spencerport & Washington,STATE HWY 31 & COUNTY HWY 212,43.188141,-77.854273,,,,,,0
228,228,Brockport-Spencerport & Washington,STATE HWY 31 & COUNTY HWY 212,43.188285,-77.853816,,,,,,0
229,229,Brooks & 1214 Brooks,STATE HWY 204 & AIRPORT RD,43.130876,-77.669022,,,,,,0
232,232,Brooks & Barge Canal,STATE HWY 204 & RAMP,43.130817,-77.658501,,,,,,0
234,234,Brooks & Buell,STATE HWY 204 & COUNTY HWY 162,43.1309,-77.665511,,,,,,0
236,236,Brooks & Burlington,BROOKS AVE & BURLINGTON AVE,43.131043,-77.646532,,,,,,0
237,237,Brooks & Chandler,BROOKS AVE & CHANDLER ST,43.130946,-77.643467,,,,,,0
238,238,Brooks & Evangeline,BROOKS AVE & EVANGELINE ST,43.131118,-77.641775,,,,,,0
239,239,Brooks & Evangeline,,43.130948,-77.641826,,,,,,0
240,240,Brooks & Fairview,BROOKS AVE & FAIRVIEW AVE,43.130903,-77.650282,,,,,,0
241,241,Brooks & Genesee,BROOKS AVE & GENESEE ST,43.130995,-77.63656,,,,,,0
242,242,Brooks & Genesee Park,BROOKS AVE & GENESEE PARK BLVD,43.130832,-77.653798,,,,,,0
243,243,Brooks & Genesee Park,BROOKS AVE & GENESEE PARK BLVD,43.130961,-77.653465,,,,,,0
244,244,Brooks & Kron,BROOKS AVE & KRON ST,43.130997,-77.640864,,,,,,0
245,245,Brooks Landing,BROOKS AVE & GENESEE ST,43.131152,-77.636895,,,,,,0
246,246,Brooks & Maxwell,BROOKS AVE & MAXWELL AVE,43.131073,-77.644663,,,,,,0
247,247,Brooks & Millbank,BROOKS AVE & MILLBANK ST,43.131124,-77.639509,,,,,,0
248,248,Brooks & Paige,BROOKS AVE & PAIGE ST,43.130998,-77.638911,,,,,,0
249,249,Brooks & Post,BROOKS AVE & POST AVE,43.130935,-77.647748,,,,,,0
250,250,Brooks & Post,BROOKS AVE & POST AVE,43.131047,-77.64757,,,,,,0
251,251,Brooks & Route 390,STATE HWY 204 & RAMP,43.13097,-77.658943,,,,,,0
252,252,Brooks & Stanfield,BROOKS AVE & GILLETTE ST,43.131044,-77.64923,,,,,,0
253,253,Brooks & Thurston,BROOKS AVE & THURSTON RD,43.130999,-77.650468,,,,,,0
254,254,Brooks & Wegmans Dist Ctr,,43.130646,-77.67679,,,,,,0
255,255,Brooks & Westfield,,43.130957,-77.655108,,,,,,0
256,256,Brooks & Woodbine,BROOKS AVE & WOODBINE AVE,43.130944,-77.645393,,,,,,0
260,260,Browncroft & Browncroft Townhouses,STATE HWY 286 & UNNAMED ST,43.157625,-77.537771,,,,,,0
262,262,Browncroft & Newcastle,BROWNCROFT BLVD & NEWCASTLE RD,43.157423,-77.541849,,,,,,0
265,265,Buffalo & 1150 Buffalo,STATE HWY 33 & UNNAMED ST,43.150033,-77.682164,,,,,,0
266,266,Buffalo & 1150 Buffalo,STATE HWY 33 & UNNAMED ST,43.149905,-77.68217,,,,,,0
267,267,Buffalo & 1672 Buffalo,STATE HWY 33 & UNNAMED ST,43.149943,-77.696018,,,,,,0
268,268,Buffalo & 1931 Buffalo,STATE HWY 33 & BUFFALO RD,43.149104,-77.703488,,,,,,0
269,269,Buffalo & 2200 Buffalo,STATE HWY 33 & COUNTY HWY 160,43.147539,-77.709868,,,,,,0
270,270,Buffalo & 535 Buffalo,STATE HWY 33 & COUNTY HWY 160,43.150353,-77.663803,,,,,,0
271,271,Buffalo & 535 Buffalo,STATE HWY 33 & COUNTY HWY 160,43.150313,-77.663599,,,,,,0
276,276,Buffalo & Columbus,STATE HWY 33 & RELLIM BLVD,43.149801,-77.693426,,,,,,0
277,277,Buffalo & Crestwood,STATE HWY 33 & CRESTWOOD BLVD,43.149994,-77.687507,,,,,,0
278,278,Buffalo & Crestwood,STATE HWY 33 & CRESTWOOD BLVD,43.149858,-77.687816,,,,,,0
279,279,Buffalo & Davy,STATE HWY 33 & DAVY DR,43.144484,-77.725051,,,,,,0
280,280,Buffalo & Dearcop,STATE HWY 33 & DEARCOP DR,43.149901,-77.677081,,,,,,0
281,281,Buffalo & Dearcop,STATE HWY 33 & DEARCOP DR,43.150042,-77.677055,,,,,,0
282,282,Buffalo & 1941 Buffalo,STATE HWY 33 & COUNTY HWY 160,43.149342,-77.703263,,,,,,0
283,283,Buffalo & Elmgrove,STATE HWY 33 & ELMGROVE ROAD EXT,43.143992,-77.731823,,,,,,0
284,284,Buffalo & Elmgrove,STATE HWY 33 & ELMGROVE ROAD EXT,43.143874,-77.731672,,,,,,0
287,287,Buffalo & Green Acre,STATE HWY 33 & GREEN ACRE LN,43.149894,-77.698972,,,,,,0
288,288,Buffalo & Green Acre,STATE HWY 33 & GREEN ACRE LN,43.149766,-77.699194,,,,,,0
290,290,Buffalo & Howard,STATE HWY 33 & STATE RTE 940L,43.149976,-77.690454,,,,,,0
291,291,Buffalo & Howard,STATE HWY 33 & STATE RTE 940L,43.149847,-77.690019,,,,,,0
295,295,Buffalo & McKee,STATE HWY 33 & MCKEE RD,43.150045,-77.668057,,,,,,0
296,296,Buffalo & McKee,STATE HWY 33 & MCKEE RD,43.149912,-77.667813,,,,,,0
298,298,Buffalo & Mt Read,STATE HWY 33 & MILLER DR,43.151915,-77.660652,,,,,,0
304,304,Buffalo & Rellim,STATE HWY 33 & RELLIM BLVD,43.149954,-77.693802,,,,,,0
306,306,Buffalo & Trabold,STATE HWY 33 & TRABOLD RD,43.144283,-77.72627,,,,,,0
311,311,Buffalo & Wegman,STATE HWY 33 & COUNTY HWY 156,43.146921,-77.711534,,,,,,0
312,312,Buffalo & Westmar Plaza,STATE HWY 33 & COUNTY HWY 160,43.147919,-77.7085,,,,,,0
313,313,Bushnells Basin Park & Ride,SILVER PINES DR & BAY RD,43.056973,-77.472151,,,,,,0
314,314,Byron & Clinton,STATE HWY 15 & CLINTON AVE S,43.148416,-77.604441,,,,,,0
318,318,Cairn & 2 Cairn,CAIRN ST & SYMINGTON PL,43.148652,-77.660586,,,,,,0
320,320,Cairn & 15 Cairn,CAIRN ST & SYMINGTON PL,43.144969,-77.663927,,,,,,0
326,326,Calkins & 475 Calkins,COUNTY HWY 39 & COLUMBUS DR,43.068293,-77.625441,,,,,,0
335,335,Calkins & Gloucester,COUNTY HWY 39 & GLOUCESTER CIR,43.068587,-77.6122,,,,,,0
336,336,Calkins & Gloucester,COUNTY HWY 39 & GLOUCESTER CIR,43.068804,-77.61103,,,,,,0
337,337,Calkins & Memorial,COUNTY HWY 39 & MEMORIAL DR,43.0684,-77.6177,,,,,,0
338,338,Calkins & Strawberry Hill,COUNTY HWY 39 & STRAWBERRY HILL RD,43.068588,-77.620223,,,,,,0
339,339,Calkins & Town Hall,COUNTY HWY 39 & COLUMBUS DR,43.068483,-77.624966,,,,,,0
352,352,Carter & 997 Carter,CARTER ST & REXFORD ST,43.196252,-77.592304,,,,,,0
354,354,Carter & Brambury,CARTER ST & BRAMBURY DR,43.194988,-77.59223,,,,,,0
355,355,Carter & Norton,,43.187274,-77.59183,,,,,,0
357,357,Carter & Rexford,CARTER ST & REXFORD ST,43.190455,-77.591984,,,,,,0
359,359,Carter & Wilson Health Ctr,CARTER ST & DRIVEWAY,43.191621,-77.592023,,,,,,0
362,362,Chalford & Forgham,CHALFORD RD & FORGHAM RD,43.238149,-77.633003,,,,,,0
366,366,Chestnut & Andrews,,43.160793,-77.603089,,,,,,0
367,367,Chestnut & Johnson,STATE HWY 31 & JOHNSON PL,43.152138,-77.602443,,,,,,0
370,370,Chestnut & Main,N CHESTNUT ST & MAIN ST E,43.157865,-77.602382,,,,,,0
374,374,Chestnut & University,N CHESTNUT ST & PLEASANT ST,43.160877,-77.602854,,,,,,0
375,375,Chestnut & Woodbury,CHESTNUT ST & STATE HWY 31,43.153218,-77.60296,,,,,,0
383,383,Child & Campbell,CHILD ST & CAMPBELL ST,43.157525,-77.638931,,,,,,0
384,384,Child & Campbell,CHILD ST & CAMPBELL ST,43.157283,-77.638757,,,,,,0
385,385,Child & Jay,CHILD ST & JAY ST,43.159085,-77.638909,,,,,,0
386,386,Child & Maple,CHILD ST & MAPLE ST,43.155378,-77.638926,,,,,,0
388,388,Chili & 2648 Chili,STATE HWY 33A & MAPLE ST,43.125457,-77.703994,,,,,,0
389,389,Chili & 2669 Chili,STATE HWY 33A & LEXINGTON PKWY,43.124189,-77.706578,,,,,,0
392,392,Chili & 2782 Chili,STATE HWY 33A & MARSHALL RD,43.120534,-77.714171,,,,,,0
395,395,Chili & 3235 Chili,STATE HWY 33A & OLD SCOTTSVILLE CHILI RD,43.104515,-77.751373,,,,,,0
396,396,Chili & Route 390 Off Ramp,STATE HWY 33A & I 390 S,43.138672,-77.670238,,,,,,0
399,399,Chili & Archer,STATE HWY 33A & ARCHER RD,43.113649,-77.732748,,,,,,0
400,400,Chili & Ardmore,STATE HWY 33A & ARDMORE ST,43.149564,-77.638342,,,,,,0
401,401,Chili & Ardmore,STATE HWY 33A & ARDMORE ST,43.149758,-77.638119,,,,,,0
405,405,Chili & Bright Oaks,STATE HWY 33A & BRIGHT OAKS DR,43.116057,-77.727742,,,,,,0
407,407,Chili & Old Beahan,STATE HWY 33A & OLD BEAHAN RD,43.132105,-77.686209,,,,,,0
409,409,Chili & Buell,STATE HWY 33A & BRYN MAWR RD,43.139859,-77.6674,,,,,,0
410,410,Chili & Buell,STATE HWY 33A & BRYN MAWR RD,43.139911,-77.666658,,,,,,0
413,413,Chili & Chestnut,STATE HWY 33A & CHESTNUT DR,43.11761,-77.720728,,,,,,0
414,414,Chili & Chestnut,STATE HWY 33A & CHESTNUT DR,43.117684,-77.72088,,,,,,0
415,415,Chili & Chi Mar,STATE HWY 33A & CHI MAR DR,43.119048,-77.717527,,,,,,0
416,416,Chili & Depew,STATE HWY 33A & DEPEW ST,43.144638,-77.653267,,,,,,0
417,417,Chili & Dorstone,STATE HWY 33A & DORSTONE RD,43.133292,-77.684649,,,,,,0
419,419,Chili & Douglas,STATE HWY 33A & DOUGLAS DR,43.118748,-77.717971,,,,,,0
420,420,Chili & Elham,STATE HWY 33A & ELHAM RD,43.133317,-77.684049,,,,,,0
421,421,Chili & Fessenden,STATE HWY 33A & FESSENDEN ST,43.142086,-77.660765,,,,,,0
422,422,Chili & Fisher,STATE HWY 33A & FISHER RD,43.130146,-77.693284,,,,,,0
423,423,Chili & Fisher,STATE HWY 33A & FISHER RD,43.130256,-77.693765,,,,,,0
425,425,Chili & Genesee Park,STATE HWY 33A & GENESEE PARK BLVD,43.142596,-77.658928,,,,,,0
426,426,Chili & Genesee Park,STATE HWY 33A & GENESEE PARK BLVD,43.143174,-77.657606,,,,,,0
427,427,Chili & Grenell,STATE HWY 33A & GRENELL DR,43.109239,-77.741722,,,,,,0
429,429,Chili & Hinchey,STATE HWY 33A & COUNTY HWY 237,43.13852,-77.67144,,,,,,0
431,431,Chili & Hobart,STATE HWY 33A & HOBART ST,43.146254,-77.648447,,,,,,0
432,432,Chili & Howard,STATE HWY 33A & COUNTY HWY 164,43.13107,-77.689356,,,,,,0
433,433,Chili & Jasmine,STATE HWY 33A & JASMINE RD,43.137462,-77.67448,,,,,,0
435,435,Chili & Kernwood,STATE HWY 33A & KERNWOOD DR,43.128476,-77.697294,,,,,,0
437,437,Chili & Lettington,STATE HWY 33A & LETTINGTON AVE,43.135569,-77.680093,,,,,,0
438,438,Chili & Lettington,STATE HWY 33A & LETTINGTON AVE,43.135491,-77.679669,,,,,,0
440,440,Chili & Lexington,STATE HWY 33A & LEXINGTON PKWY,43.124068,-77.706528,,,,,,0
441,441,Chili & Lincoln,STATE HWY 33A & LINCOLN AVE,43.143851,-77.655609,,,,,,0
444,444,Chili & Marshall,STATE HWY 33A & MARSHALL RD,43.119848,-77.71529,,,,,,0
449,449,Chili & Paul,STATE HWY 33A & STATE HWY 252A,43.107528,-77.745102,,,,,,0
450,450,Chili & Paul,STATE HWY 33A & STATE HWY 252A,43.105767,-77.749162,,,,,,0
451,451,Chili & Pearwood,STATE HWY 33A & PEARWOOD RD,43.137883,-77.672506,,,,,,0
452,452,Chili & Pikuet,STATE HWY 33A & PIKUET DR,43.107876,-77.744392,,,,,,0
453,453,Chili & Pixley,STATE HWY 33A & COUNTY HWY 160,43.122564,-77.709646,,,,,,0
454,454,Chili & Pixley,STATE HWY 33A & COUNTY HWY 160,43.122851,-77.709382,,,,,,0
455,455,Chili & Post,STATE HWY 33A & POST AVE,43.1462,-77.648228,,,,,,0
457,457,Chili & Rugby,STATE HWY 33A & RUGBY AVE,43.148009,-77.643242,,,,,,0
458,458,Chili & Rugby,STATE HWY 33A & RUGBY AVE,43.147723,-77.643812,,,,,,0
460,460,Chili & Salina,STATE HWY 33A & SALINA ST,43.144833,-77.652278,,,,,,0
464,464,Chili & Stewart,STATE HWY 33A & STEWART DR,43.136826,-77.676381,,,,,,0
465,465,Chili & Thorndale,STATE HWY 33A & THORNDALE TER,43.146966,-77.646306,,,,,,0
466,466,Chili & Thurston,STATE HWY 33A & THURSTON RD,43.145464,-77.650768,,,,,,0
467,467,Chili & Thurston,STATE HWY 33A & THURSTON RD,43.145149,-77.651307,,,,,,0
471,471,Chili & Kernwood,STATE HWY 33A & KERNWOOD DR,43.128789,-77.697181,,,,,,0
472,472,Chili & Wegmans Market,STATE HWY 33A & WEGMANS MARKET ST,43.125444,-77.703539,,,,,,0
473,473,Chili & Wellington,STATE HWY 33A & WELLINGTON AVE,43.148671,-77.640953,,,,,,0
474,474,Chili & Wellington,STATE HWY 33A & WELLINGTON AVE,43.148842,-77.640767,,,,,,0
475,475,Chili & Westfield,STATE HWY 33A & WESTFIELD ST,43.141464,-77.662606,,,,,,0
476,476,Chili & Westfield,,43.141248,-77.662673,,,,,,0
477,477,Chili & Brooks,STATE HWY 33A & STATE HWY 204,43.132118,-77.686749,,,,,,0
478,478,Chili & Westgate,STATE HWY 33A & WESTGATE TER,43.143591,-77.655993,,,,,,0
481,481,Chili & Woodbine,STATE HWY 33A & WOODBINE AVE,43.146935,-77.646032,,,,,,0
494,494,Church & Hulburt,STATE HWY 31F & HULBURT AVE,43.098976,-77.452243,,,,,,0
495,495,Church & Main,STATE HWY 31F & STATE HWY 250,43.098474,-77.442739,,,,,,0
497,497,Church & Nelson,STATE HWY 31F & NELSON ST,43.099043,-77.452029,,,,,,0
499,499,Church & Potter,STATE HWY 31F & POTTER PL,43.098584,-77.447091,,,,,,0
501,501,Church & West,CHURCH ST & WEST AVE,43.191848,-77.802166,,,,,,0
502,502,Church & West,STATE HWY 31F & WEST ST,43.098703,-77.446244,,,,,,0
503,503,Clarissa & Greig,CLARISSA ST & GREIG ST,43.144862,-77.616056,,,,,,0
504,504,Clifford & Alford,CLIFFORD AVE & ALFORD ST,43.175963,-77.569616,,,,,,0
505,505,Clifford & Baycliff,CLIFFORD AVE & BAYCLIFF DR,43.175956,-77.573858,,,,,,0
506,506,Clifford & Baycliff,CLIFFORD AVE & BAYCLIFF DR,43.175826,-77.574081,,,,,,0
507,507,Clifford & Bedford,CLIFFORD AVE & BEDFORD ST,43.176099,-77.565761,,,,,,0
510,510,Clifford & Coleman,,43.175519,-77.584826,,,,,,0
511,511,Culver & Clifford,CLIFFORD AVE & ROSEVIEW AVE,43.176423,-77.558185,,,,,,0
516,516,Clifford & Ferncliffe,CLIFFORD AVE & 6TH ST,43.175698,-77.582435,,,,,,0
517,517,Clifford & Garnet,CLIFFORD AVE & GARNET ST,43.175664,-77.579806,,,,,,0
519,519,Clifford & Goodman,CLIFFORD AVE & GOODMAN ST N,43.175888,-77.575777,,,,,,0
520,520,Clifford & Goodman,,43.175753,-77.57632,,,,,,0
521,521,Clifford & Greenlane,CLIFFORD AVE & BEDFORD ST,43.17619,-77.56534,,,,,,0
522,522,Clifford & Hollister,,43.17532,-77.592738,,,,,,0
523,523,Clifford & Jerold,CLIFFORD AVE & JEROLD ST,43.175772,-77.580414,,,,,,0
526,526,Clifford & Lincoln,CLIFFORD AVE & LINCOLN ST,43.175469,-77.593651,,,,,,0
528,528,Clifford & Lyceum,CLIFFORD AVE & LYCEUM ST,43.176018,-77.568135,,,,,,0
529,529,Clifford & Manitou,CLIFFORD AVE & MANITOU ST,43.175672,-77.584464,,,,,,0
530,530,Clifford & Mapledale,CLIFFORD AVE & MAPLEDALE ST,43.176212,-77.561462,,,,,,0
533,533,Clifford & Morton,CLIFFORD AVE & MORTON PL,43.176087,-77.569959,,,,,,0
534,534,Clifford & Pershing,CLIFFORD AVE & PERSHING DR,43.176143,-77.567265,,,,,,0
535,535,Clifford & Portland FS,,43.175374,-77.590402,,,,,,0
536,536,Clifford & Portland,CLIFFORD AVE & PORTLAND AVE,43.175558,-77.590704,,,,,,0
537,537,Clifford & Portland NS,CLIFFORD AVE & PORTLAND AVE,43.175361,-77.591582,,,,,,0
540,540,Clifford & 6th - School # 45,CLIFFORD AVE & 6TH ST,43.175621,-77.582233,,,,,,0
544,544,Clifford & Woodman,CLIFFORD AVE & WOODMAN PARK,43.176361,-77.560061,,,,,,0
545,545,Clinton & 1900 Clinton,COUNTY HWY 100 & RUE DE VL,43.120794,-77.594954,,,,,,0
549,549,Clinton & 2180 Clinton,CLINTON AVE S & DUFFIELD RD,43.116439,-77.596541,,,,,,0
551,551,Clinton & Clintwood,CLINTON AVE S & UNNAMED ST,43.128748,-77.591539,,,,,,0
552,552,Clinton & Alcazar,CLINTON AVE N & ALCAZAR ST,43.195313,-77.612446,,,,,,0
553,553,Clinton & Alexander,CLINTON AVE S & ALEXANDER ST,43.146311,-77.602421,,,,,,0
554,554,Clinton & Alexander,CLINTON AVE S & ALEXANDER ST,43.146028,-77.602006,,,,,,0
557,557,Clinton & Asbury,CLINTON AVE S & ASBURY ST,43.137284,-77.593976,,,,,,0
558,558,Clinton & Averill,CLINTON AVE S & AVERILL AVE,43.144815,-77.601234,,,,,,0
559,559,Clinton & Averill,CLINTON AVE S & AVERILL AVE,43.144663,-77.600968,,,,,,0
560,560,Clinton & Benton,CLINTON AVE S & BENTON ST,43.138318,-77.594805,,,,,,0
561,561,Clinton & Benton,CLINTON AVE S & BENTON ST,43.138296,-77.595003,,,,,,0
562,562,Clinton & Bly,CLINTON AVE S & BLY ST,43.137058,-77.593975,,,,,,0
563,563,Clinton & Broad,S CLINTON AVE & BROAD ST E,43.155464,-77.605545,,,,,,0
565,565,Clinton & Byron,CLINTON AVE S & RAMP,43.148233,-77.603694,,,,,,0
566,566,Clinton & Collingwood,CLINTON AVE N & COLLINGWOOD DR,43.197175,-77.612514,,,,,,0
567,567,Clinton & Collingwood,CLINTON AVE N & COLLINGWOOD DR,43.196941,-77.612386,,,,,,0
568,568,Clinton & Comfort,CLINTON AVE S & COMFORT ST,43.147463,-77.603261,,,,,,0
569,569,Clinton & Court,STATE HWY 15 & COURT ST,43.153889,-77.604926,,,,,,0
570,570,Clinton & Elmwood,,43.124981,-77.593354,,,,,,0
571,571,Clinton & Elmwood,,43.126396,-77.592465,,,,,,0
572,572,Clinton & Elmwood,CLINTON AVE S & S CLINTON AVE,43.126274,-77.592818,,,,,,0
573,573,Clinton & Field,CLINTON AVE S & FIELD ST,43.13433,-77.591293,,,,,,0
574,574,Clinton & Field,CLINTON AVE S & FIELD ST,43.134386,-77.591605,,,,,,0
576,576,Clinton & Westfall,CLINTON AVE S & COUNTY HWY 239,43.114674,-77.597048,,,,,,0
577,577,Clinton & Goodman,CLINTON AVE S & PAUL PL,43.140251,-77.596379,,,,,,0
578,578,Clinton & Goodman,CLINTON AVE S & GOODMAN ST S,43.139809,-77.5962,,,,,,0
579,579,Clinton & Gregory,CLINTON AVE S & GREGORY ST,43.143622,-77.60034,,,,,,0
580,580,Clinton & Gregory,CLINTON AVE S & GREGORY ST,43.14315,-77.59966,,,,,,0
582,582,Clinton & Karges,CLINTON AVE S & KARGES PL,43.140528,-77.596807,,,,,,0
583,583,Clinton & Long Acre,CLINTON AVE N & LONG ACRE RD,43.199181,-77.612629,,,,,,0
584,584,Clinton & Long Acre,CLINTON AVE N & LONG ACRE RD,43.198927,-77.612448,,,,,,0
586,586,Clinton & Mcquaid HS,COUNTY HWY 100 & MAIN ST E,43.124508,-77.5933,,,,,,0
587,587,Clinton & Meigs,CLINTON AVE S & MEIGS ST,43.141701,-77.597828,,,,,,0
588,588,Clinton & Meigs,CLINTON AVE S & MEIGS ST,43.141763,-77.5981,,,,,,0
592,592,Clinton & Rau,CLINTON AVE N & RAU ST,43.193544,-77.612287,,,,,,0
593,593,Clinton & Rawlinson,CLINTON AVE N & RAWLINSON RD,43.202077,-77.612768,,,,,,0
594,594,Clinton & Rawlinson,CLINTON AVE N & RAWLINSON RD,43.201878,-77.612637,,,,,,0
595,595,Clinton & Ridge,CLINTON AVE N & RIDGE RD E,43.194634,-77.61226,,,,,,0
596,596,Clinton & Rau,,43.193222,-77.612559,,,,,,0
597,597,Clinton & Rockingham,CLINTON AVE S & ROCKINGHAM ST,43.135527,-77.592585,,,,,,0
599,599,Clinton & Rue De Ville,COUNTY HWY 100 & RUE DE VL,43.122209,-77.594229,,,,,,0
604,604,Clinton & Spier,CLINTON AVE S & SPIER AVE,43.129899,-77.590748,,,,,,0
605,605,Clinton & Spier,CLINTON AVE S & SPIER AVE,43.130031,-77.590918,,,,,,0
606,606,Clinton & Suburban,CLINTON AVE S & SUBURBAN CT,43.127036,-77.592123,,,,,,0
607,607,Clinton & Suburban,CLINTON AVE S & SUBURBAN CT,43.127071,-77.592387,,,,,,0
609,609,Clinton & Versailles,CLINTON AVE N & VERSAILLES RD,43.196218,-77.612486,,,,,,0
611,611,Clinton & Wimbledon,CLINTON AVE N & WIMBLEDON RD,43.204647,-77.612895,,,,,,0
612,612,Clinton & Wimbledon,CLINTON AVE N & WIMBLEDON RD,43.204415,-77.612679,,,,,,0
614,614,Clinton & Ave A,CLINTON AVE N & AVENUE A,43.177702,-77.613511,,,,,,0
615,615,Clinton & Ave A,CLINTON AVE N & AVENUE A,43.178138,-77.613367,,,,,,0
616,616,Clinton & Avenue D,,43.180193,-77.613537,,,,,,0
617,617,Clinton & Bloomingdale,CLINTON AVE N & BLOOMINGDALE ST,43.179706,-77.613676,,,,,,0
618,618,Clinton & Borchard,CLINTON AVE N & BORCHARD ST,43.183789,-77.613809,,,,,,0
619,619,Clinton & Borchard,CLINTON AVE N & BORCHARD ST,43.183809,-77.613646,,,,,,0
620,620,Clinton & Central,CLINTON AVE N & CENTRAL AVE,43.162542,-77.608573,,,,,,0
621,621,Clinton & Central,CLINTON AVE N & CENTRAL AVE,43.162779,-77.608826,,,,,,0
622,622,Clinton & Clifford,CLINTON AVE N & RADIO ST,43.175408,-77.613388,,,,,,0
623,623,Clinton & Clifford,CLINTON AVE N & CLIFFORD AVE,43.175189,-77.613192,,,,,,0
625,625,Clinton & Darrow,CLINTON AVE N & DARROW ST,43.189263,-77.613363,,,,,,0
626,626,Clinton & Darrow,CLINTON AVE N & DARROW ST,43.189245,-77.613203,,,,,,0
627,627,Clinton & Kappel,CLINTON AVE N & KAPPEL PL,43.17301,-77.612771,,,,,,0
628,628,Clinton & Kelly,CLINTON AVE N & KELLY ST,43.167097,-77.610373,,,,,,0
629,629,Clinton & Kohlman,CLINTON AVE N & KOHLMAN ST,43.181672,-77.6136,,,,,,0
630,630,Clinton & Norton,CLINTON AVE N & NORTON ST,43.186777,-77.613671,,,,,,0
631,631,Clinton & Norton,CLINTON AVE N & NORTON ST,43.186087,-77.613892,,,,,,0
632,632,Clinton & Rauber,CLINTON AVE N & RAUBER ST,43.172361,-77.612414,,,,,,0
633,633,Clinton & Resolute,CLINTON AVE N & RESOLUTE ST,43.190189,-77.612935,,,,,,0
634,634,Clinton & Rialto,CLINTON AVE N & RIALTO ST,43.182187,-77.613773,,,,,,0
635,635,Clinton & Saint Bridgets,CLINTON AVE N & SAINT BRIDGETS DR,43.168081,-77.610844,,,,,,0
636,636,Clinton & Saint Bridgets,CLINTON AVE N & SAINT BRIDGETS DR,43.168223,-77.611046,,,,,,0
637,637,Clinton & Upper Falls,CLINTON AVE N & UPPER FALLS BLVD,43.170332,-77.611955,,,,,,0
638,638,Clinton & Upper Falls,CLINTON AVE N & UPPER FALLS BLVD,43.170006,-77.611598,,,,,,0
639,639,Clinton & Ward,CLINTON AVE N & WARD ST,43.164927,-77.609697,,,,,,0
640,640,Clinton & Ward,CLINTON AVE N & WARD ST,43.164509,-77.60933,,,,,,0
642,642,Colby & East,COLBY ST & STATE HWY 96,43.146826,-77.562055,,,,,,0
644,644,Colby & Park,COLBY ST & PARK AVE,43.145855,-77.56259,,,,,,0
652,652,Colfax & 575 Colfax,COLFAX ST & FISHER ST,43.176843,-77.669792,,,,,,0
653,653,Brockport Park & Ride,UNNAMED ST & FERRANO ST,43.199093,-77.958009,,,,,,0
654,654,Commercial & 501 Commercial,W COMMERCIAL ST & MCKINLEY ST,43.116546,-77.497838,,,,,,0
655,655,Commercial & Garfield,W COMMERCIAL ST & GARFIELD ST,43.113685,-77.488069,,,,,,0
656,656,Commercial & Garfield,W COMMERCIAL ST & GARFIELD ST,43.11367,-77.487408,,,,,,0
657,657,Commercial & Grant,W COMMERCIAL ST & GRANT ST,43.115451,-77.494469,,,,,,0
658,658,Commercial & Grant,W COMMERCIAL ST & GRANT ST,43.11559,-77.494347,,,,,,0
661,661,Commercial & Main,W COMMERCIAL ST & MAIN ST,43.113012,-77.48571,,,,,,0
662,662,Commercial & McKinley,W COMMERCIAL ST & MCKINLEY ST,43.116059,-77.496834,,,,,,0
663,663,Commercial & McKinley,W COMMERCIAL ST & MCKINLEY ST,43.116157,-77.496491,,,,,,0
664,664,Commercial & Washington,W COMMERCIAL ST & STATE HWY 153,43.114337,-77.489947,,,,,,0
665,665,Commercial & Washington,W COMMERCIAL ST & STATE HWY 153,43.114258,-77.490145,,,,,,0
669,669,Cooper & Chimayo,COUNTY HWY 116 & CHIMAYO RD,43.213395,-77.598484,,,,,,0
670,670,Cooper & Hedgegarth,COUNTY HWY 116 & HEDGEGARTH DR,43.211706,-77.598216,,,,,,0
671,671,Cooper & Montclair,COUNTY HWY 116 & MONTCLAIR DR,43.219826,-77.598669,,,,,,0
672,672,Cooper & Radcliffe,COUNTY HWY 116 & RADCLIFFE RD,43.221175,-77.598863,,,,,,0
673,673,Cooper & Radcliffe,COUNTY HWY 116 & RADCLIFFE RD,43.221352,-77.598759,,,,,,0
674,674,Cooper & Thorncliffe,COUNTY HWY 116 & THORNCLIFFE DR,43.216355,-77.598619,,,,,,0
675,675,Cooper & Thornton,COUNTY HWY 116 & THORNTON RD,43.214446,-77.598382,,,,,,0
676,676,Cooper & Titus,COUNTY HWY 116 & COUNTY HWY 91,43.210897,-77.598417,,,,,,0
677,677,Cooper & Winona,COUNTY HWY 116 & WINONA BLVD,43.219985,-77.59882,,,,,,0
678,678,Cooper & Wyndale,COUNTY HWY 116 & WYNDALE RD,43.213449,-77.598358,,,,,,0
679,679,Cooper Loop,,43.2171,-77.598204,,,,,,0
682,682,Country Club Plaza,,43.10295,-77.484217,,,,,,0
683,683,Court & Chestnut,COURT ST & STATE HWY 15,43.15422,-77.603566,,,,,,0
684,684,Court & Clinton,COURT ST & STATE HWY 15,43.153978,-77.60521,,,,,,0
685,685,Court & Saint Marys,COURT ST & RAMP,43.153883,-77.606054,,,,,,0
705,705,Creek & Empire,COUNTY HWY 22 & EMBURY RD,43.189534,-77.503728,,,,,,0
719,719,Creek & Yorktown,COUNTY HWY 22 & YORKTOWN DR,43.185955,-77.502753,,,,,,0
720,720,Creek House & White Swan,CREEK HOUSE DR & WHITE SWAN DR,43.219026,-77.73572,,,,,,0
725,725,Crittenden & Lattimore,CRITTENDEN BLVD & CONNECTING RD,43.121461,-77.628268,,,,,,0
727,727,Crittenden & Lot 20,COUNTY HWY 83 & CAIRN ST,43.104446,-77.623579,,,,,,0
728,728,Strong Hospital,CRITTENDEN BLVD & CONNECTING RD,43.121696,-77.623618,,,,,,0
729,729,Crittenden & E Squire,COUNTY HWY 83 & CONNECTING RD,43.104744,-77.621747,,,,,,0
730,730,Crittenden & W Henrietta,COUNTY HWY 83 & CRITTENDEN RD,43.104341,-77.626283,,,,,,0
731,731,Crittenden & W Henrietta,COUNTY HWY 83 & CONNECTING RD,43.10419,-77.626519,,,,,,0
735,735,Culver & 4250 Culver,COUNTY HWY 120 & DRIVEWAY,43.226099,-77.547549,,,,,,0
737,737,Culver & Adrian,COUNTY HWY 120 & ADRIAN RD,43.222945,-77.550406,,,,,,0
739,739,Culver & Avondale,COUNTY HWY 120 & AVONDALE RD,43.218057,-77.555391,,,,,,0
740,740,Culver & Bay,CULVER RD & BAY ST,43.171689,-77.559912,,,,,,0
743,743,Culver & Breezeway,COUNTY HWY 120 & BREEZEWAY DR,43.229896,-77.545612,,,,,,0
744,744,Culver & Breezeway,COUNTY HWY 120 & BREEZEWAY DR,43.23019,-77.54556,,,,,,0
747,747,Culver & Cedarwood,CULVER RD & CEDARWOOD TER,43.162853,-77.564508,,,,,,0
748,748,Culver & Charwood - North,CULVER RD & CHARWOOD CIR,43.184121,-77.560683,,,,,,0
751,751,Culver & Corley,COUNTY HWY 120 & CORLEY DR,43.224893,-77.548591,,,,,,0
755,755,Culver & Durand Blvd,COUNTY HWY 120 & DEWBERRY DR,43.22745,-77.546826,,,,,,0
756,756,Culver & Durand Dr,COUNTY HWY 120 & DURAND DR,43.222917,-77.550624,,,,,,0
762,762,Culver & Fairlea,COUNTY HWY 120 & FAIRLEA DR,43.219473,-77.554153,,,,,,0
763,763,Culver & Ferris,CULVER RD & FERRIS ST,43.170138,-77.560777,,,,,,0
767,767,Culver & Garson,CULVER RD & GARSON AVE,43.164008,-77.564059,,,,,,0
768,768,Culver & Garson,CULVER RD & GARSON AVE,43.163844,-77.563964,,,,,,0
773,773,Culver & Harwick,CULVER RD & HARWICK RD,43.173754,-77.558646,,,,,,0
774,774,Culver & Hazelwood,CULVER RD & HAZELWOOD TER,43.167691,-77.562071,,,,,,0
775,775,Culver & Hazelwood,CULVER RD & HAZELWOOD TER,43.167559,-77.561979,,,,,,0
779,779,Culver & Hoffman,COUNTY HWY 120 & HOFFMAN RD,43.217682,-77.555927,,,,,,0
780,780,Culver & Humboldt,CULVER RD & HUMBOLDT ST,43.155114,-77.568879,,,,,,0
781,781,Culver & Humboldt,CULVER RD & HUMBOLDT ST,43.155414,-77.568499,,,,,,0
782,782,Culver & Lake Breeze,COUNTY HWY 120 & LAKE BREEZE PARK,43.219316,-77.554091,,,,,,0
783,783,Culver & Lancraft,CULVER RD & LANCRAFT ST,43.177953,-77.558673,,,,,,0
784,784,Culver & Laurelton,CULVER RD & LAURELTON RD,43.172291,-77.55943,,,,,,0
786,786,Culver & Liberty,COUNTY HWY 120 & LIBERTY AVE,43.220275,-77.55326,,,,,,0
788,788,Culver & Main,CULVER RD & MAIN ST E,43.160251,-77.566087,,,,,,0
789,789,Culver & Melville,CULVER RD & MELVILLE ST,43.166811,-77.56238,,,,,,0
791,791,Culver & Merchants,CULVER RD & MERCHANTS RD,43.171019,-77.560067,,,,,,0
793,793,Culver & Norton,CULVER RD & NORTON ST,43.187516,-77.560868,,,,,,0
794,794,Culver & Owaissa,COUNTY HWY 120 & OWAISSA DR,43.214288,-77.558811,,,,,,0
797,797,Culver & Pemberton,COUNTY HWY 120 & PEMBERTON RD,43.214045,-77.558778,,,,,,0
798,798,Culver & Point Pleasant,COUNTY HWY 120 & POINT PLEASANT RD,43.223676,-77.549642,,,,,,0
801,801,Culver & Richland,,43.170893,-77.560335,,,,,,0
802,802,Culver & Ridge,CULVER RD & COUNTY HWY 120,43.204625,-77.561873,,,,,,0
803,803,Culver & Ridge,CULVER RD & RIDGE RD E,43.203816,-77.561986,,,,,,0
804,804,Culver & 1633 Culver,CULVER RD & ROCKET ST,43.175569,-77.55783,,,,,,0
808,808,Culver & Seneca,COUNTY HWY 120 & SENECA RD,43.216163,-77.557441,,,,,,0
809,809,Culver & Seneca,COUNTY HWY 120 & SENECA RD,43.215886,-77.557546,,,,,,0
810,810,Culver & Seymour,CULVER RD & SEYMOUR RD,43.180926,-77.560496,,,,,,0
811,811,Culver & Sweet Fern,COUNTY HWY 120 & COUNTY HWY 257,43.227803,-77.546813,,,,,,0
814,814,Culver & Titus,COUNTY HWY 120 & COUNTY HWY 91,43.211721,-77.560094,,,,,,0
815,815,Culver & Titus,COUNTY HWY 120 & COUNTY HWY 91,43.211358,-77.560131,,,,,,0
817,817,Culver & Vermont,CULVER RD & VERMONT ST,43.169201,-77.561278,,,,,,0
820,820,Culver & Winfield,COUNTY HWY 120 & WINFIELD RD,43.209208,-77.561135,,,,,,0
821,821,Culver & Winfield,COUNTY HWY 120 & WINFIELD RD,43.209343,-77.561184,,,,,,0
822,822,Culver & Woodman,CULVER RD & WOODMAN PARK,43.179344,-77.560064,,,,,,0
823,823,Culver & Worthington,COUNTY HWY 120 & WORTHINGTON RD,43.207053,-77.561996,,,,,,0
824,824,Culver & Worthington,COUNTY HWY 120 & WORTHINGTON RD,43.207382,-77.562065,,,,,,0
831,831,Culver Pky & Culver,CULVER PKWY & CULVER RD,43.171571,-77.559639,,,,,,0
835,835,Culver Pky & Winton,CULVER PKWY & WINTON RD N,43.171974,-77.54123,,,,,,0
839,839,Curlew & Emerson,CURLEW ST & EMERSON ST,43.174066,-77.648306,,,,,,0
840,840,Curlew & Emerson,CURLEW ST & EMERSON ST,43.174292,-77.648196,,,,,,0
841,841,Curlew & Glenwood,CURLEW ST & GLENWOOD AVE,43.176788,-77.648173,,,,,,0
842,842,Curlew & Glenwood,CURLEW ST & GLENWOOD AVE,43.176812,-77.648297,,,,,,0
843,843,Curlew & Lexington,CURLEW ST & LEXINGTON AVE,43.17855,-77.648285,,,,,,0
844,844,Curlew & Lexington,CURLEW ST & LEXINGTON AVE,43.179127,-77.648149,,,,,,0
849,849,Dewey & Alameda,DEWEY AVE & ALAMEDA ST,43.187038,-77.638751,,,,,,0
850,850,Dewey & Alameda,DEWEY AVE & ALAMEDA ST,43.187424,-77.638961,,,,,,0
853,853,Dewey & Birr,DEWEY AVE & BIRR ST,43.185131,-77.638759,,,,,,0
854,854,Dewey & Birr,DEWEY AVE & BIRR ST,43.185403,-77.639024,,,,,,0
857,857,Dewey & Clay,DEWEY AVE & CLAY AVE,43.191589,-77.638762,,,,,,0
858,858,Dewey & Clay,DEWEY AVE & CLAY AVE,43.191801,-77.638985,,,,,,0
859,859,Dewey & Driving Pk,DEWEY AVE & DRIVING PARK AVE,43.180249,-77.639534,,,,,,0
860,860,Dewey & Driving Park,DEWEY AVE & DRIVING PARK AVE,43.180495,-77.639393,,,,,,0
861,861,Dewey & Driving Park,DEWEY AVE & DRIVING PARK AVE,43.181339,-77.638945,,,,,,0
865,865,Dewey & Glenwood,DEWEY AVE & GLENWOOD AVE,43.177051,-77.639559,,,,,,0
866,866,Dewey & Glenwood,DEWEY AVE & GLENWOOD AVE,43.176786,-77.639393,,,,,,0
868,868,Dewey & Kislingbury,DEWEY AVE & KISLINGBURY ST,43.183687,-77.638995,,,,,,0
871,871,Dewey & Lexington,DEWEY AVE & LEXINGTON AVE,43.179631,-77.639383,,,,,,0
873,873,Dewey & Magee,DEWEY AVE & MAGEE AVE,43.190099,-77.639033,,,,,,0
874,874,Dewey & Magee,DEWEY AVE & MAGEE AVE,43.189996,-77.638754,,,,,,0
875,875,Dewey & Ravine,DEWEY AVE & RAVINE AVE,43.175076,-77.63939,,,,,,0
876,876,Dewey & Ravine,DEWEY AVE & RAVINE AVE,43.175305,-77.639553,,,,,,0
877,877,Dewey & Ridgeway,DEWEY AVE & RIDGEWAY AVE,43.193694,-77.638762,,,,,,0
878,878,Dewey & Selye,DEWEY AVE & SELYE TER,43.181552,-77.63872,,,,,,0
882,882,Dewey & Pomona,STATE HWY 18 & POMONA DR,43.225388,-77.643041,,,,,,0
883,883,Dewey & 4120 Dewey,STATE HWY 18 & MEADOWBRIAR RD,43.246166,-77.646726,,,,,,0
884,884,Dewey & 4672 Dewey,COUNTY HWY 132 & UNNAMED ST,43.265594,-77.646529,,,,,,0
885,885,Dewey & 4800 Dewey,COUNTY HWY 132 & UNNAMED ST,43.266176,-77.646751,,,,,,0
886,886,Dewey & Avis,DEWEY AVE & AVIS ST,43.195604,-77.638958,,,,,,0
887,887,Dewey & Avis,DEWEY AVE & AVIS ST,43.195373,-77.638769,,,,,,0
888,888,Dewey & Banker,STATE HWY 18 & BANKER PL,43.21473,-77.640262,,,,,,0
894,894,Dewey & Brookridge,STATE HWY 18 & BROOKRIDGE DR,43.229785,-77.646556,,,,,,0
895,895,Dewey & Brookridge,STATE HWY 18 & BROOKRIDGE DR,43.22994,-77.646798,,,,,,0
896,896,Dewey & Burling,STATE HWY 18 & BURLING RD,43.216578,-77.64139,,,,,,0
898,898,Dewey & Christian,STATE HWY 18 & CHRISTIAN AVE,43.204975,-77.638766,,,,,,0
899,899,Dewey & Dalston,STATE HWY 18 & DALSTON RD,43.221296,-77.641412,,,,,,0
900,900,Dewey & De Neve,DEWEY AVE & DE NEVE AVE,43.198942,-77.638882,,,,,,0
901,901,Dewey & Denise,STATE HWY 18 & DENISE RD,43.24191,-77.646719,,,,,,0
903,903,Dewey & Dunsmere,STATE HWY 18 & DUNSMERE DR,43.208972,-77.638697,,,,,,0
904,904,Dewey & Dunsmere,STATE HWY 18 & DUNSMERE DR,43.208858,-77.638554,,,,,,0
905,905,Dewey & Eastman,STATE HWY 18 & EASTMAN AVE,43.201829,-77.638638,,,,,,0
906,906,Dewey & Eastman,STATE HWY 18 & EASTMAN AVE,43.202442,-77.638815,,,,,,0
907,907,Dewey & Ridge,STATE HWY 18 & EASTMAN AVE,43.201356,-77.638822,,,,,,0
908,908,Dewey & Eglantine,STATE HWY 18 & EGLANTINE RD,43.218984,-77.641381,,,,,,0
909,909,Dewey & Ellington,STATE HWY 18 & ELLINGTON RD,43.215226,-77.640422,,,,,,0
910,910,Dewey & Ellington,STATE HWY 18 & ELLINGTON RD,43.215373,-77.640755,,,,,,0
911,911,Dewey & English,STATE HWY 18 & ENGLISH RD,43.238134,-77.646723,,,,,,0
916,916,Dewey & Florida,STATE HWY 18 & FLORIDA AVE,43.218651,-77.641204,,,,,,0
924,924,Dewey & Ling,COUNTY HWY 132 & LING RD,43.264595,-77.64677,,,,,,0
925,925,Dewey & Maiden,STATE HWY 18 & MAIDEN LN,43.223664,-77.641727,,,,,,0
926,926,Dewey & Mc Call,STATE HWY 18 & MCCALL RD,43.210804,-77.638496,,,,,,0
927,927,Dewey & Mc Call,STATE HWY 18 & MCCALL RD,43.211084,-77.638678,,,,,,0
928,928,Dewey & Merrill,STATE HWY 18 & MERRILL ST,43.204714,-77.638606,,,,,,0
929,929,Dewey & Northgate Plaza,STATE HWY 18 & PARKING LOT,43.240201,-77.646717,,,,,,0
930,930,Dewey & Palm,DEWEY AVE & PALM ST,43.197395,-77.63895,,,,,,0
935,935,Dewey & Ridge,DEWEY AVE & STATE HWY 104,43.200042,-77.638646,,,,,,0
936,936,Dewey & Ridgeway,DEWEY AVE & RIDGEWAY AVE,43.193987,-77.638949,,,,,,0
937,937,Dewey & Rigney,COUNTY HWY 132 & RIGNEY LN,43.27153,-77.641974,,,,,,0
938,938,Dewey & Rodessa,STATE HWY 18 & RODESSA RD,43.220146,-77.64118,,,,,,0
940,940,Dewey & Shady Way,STATE HWY 18 & SHADY WAY,43.220834,-77.641175,,,,,,0
942,942,Dewey & Steko,DEWEY AVE & STEKO AVE,43.197055,-77.638756,,,,,,0
943,943,Dewey & Stone,STATE HWY 18 & STONE RD,43.223157,-77.641156,,,,,,0
944,944,Dewey & Strathmore,STATE HWY 18 & STRATHMORE DR,43.226585,-77.644542,,,,,,0
945,945,Dewey & Studley,STATE HWY 18 & STUDLEY ST,43.216892,-77.641202,,,,,,0
947,947,Dewey & Wildwood,STATE HWY 18 & WILDWOOD DR,43.228434,-77.646148,,,,,,0
948,948,Dewey & Wildwood,STATE HWY 18 & WILDWOOD DR,43.228344,-77.645935,,,,,,0
949,949,Dewey & Williston,,43.220581,-77.641394,,,,,,0
950,950,Dewey & Winchester,STATE HWY 18 & WINCHESTER ST,43.205652,-77.638584,,,,,,0
951,951,Dewey & Winchester,STATE HWY 18 & WINCHESTER ST,43.205848,-77.638768,,,,,,0
962,962,Dorsey & Dewey,COUNTY HWY 249 & STATE HWY 18,43.231119,-77.6472,,,,,,0
963,963,Dorsey & Dewey,COUNTY HWY 249 & STATE HWY 18,43.231189,-77.647484,,,,,,0
966,966,Dorsey & Woodcrest,,43.231116,-77.648991,,,,,,0
971,971,Driving Park & Archer,DRIVING PARK AVE & ARCHER ST,43.181019,-77.641405,,,,,,0
972,972,Driving Park & Argo,,43.180952,-77.647762,,,,,,0
975,975,Driving Park & Dewey,DRIVING PARK AVE & DEWEY AVE,43.181021,-77.638509,,,,,,0
976,976,Driving Park & Dove,DRIVING PARK AVE & DOVE ST,43.18096,-77.645315,,,,,,0
978,978,Driving Park & Holmes,DRIVING PARK AVE & HOLMES ST,43.180998,-77.643265,,,,,,0
980,980,Driving Park & Lark,DRIVING PARK AVE & LARK ST,43.180977,-77.644419,,,,,,0
982,982,Driving Park & Pierpont,DRIVING PARK AVE & PIERPONT ST,43.181002,-77.636831,,,,,,0
984,984,Driving Park & Ramona,DRIVING PARK AVE & RAMONA ST,43.181851,-77.650808,,,,,,0
986,986,Driving Park & Tacoma,DRIVING PARK AVE & TACOMA ST,43.181011,-77.634788,,,,,,0
992,992,East & 1470 East,STATE HWY 96 & UNNAMED ST,43.147719,-77.564173,,,,,,0
993,993,East & 1501 East,STATE HWY 96 & UNNAMED ST,43.147647,-77.564398,,,,,,0
994,994,East & 1765 East,,43.145675,-77.555941,,,,,,0
995,995,East & 2157 East,STATE HWY 96 & PROBERT ST,43.141927,-77.546708,,,,,,0
996,996,East & 2407 East,STATE HWY 96 & CLOVER ST,43.138926,-77.541485,,,,,,0
997,997,East & 2430 East,STATE HWY 96 & CLOVER ST,43.138895,-77.541253,,,,,,0
1001,1001,East & 3476 East,STATE HWY 96 & OLD LANDMARK DR,43.121545,-77.521778,,,,,,0
1002,1002,East & 3485 East,,43.121562,-77.522049,,,,,,0
1006,1006,East & Alexander,STATE HWY 96 & ALEXANDER ST,43.155028,-77.594012,,,,,,0
1007,1007,East & Alexander,STATE HWY 96 & ALEXANDER ST,43.155083,-77.594684,,,,,,0
1008,1008,East & Allen,,43.116036,-77.517221,,,,,,0
1013,1013,East & Alpine S,STATE HWY 96 & ALPINE DR,43.111388,-77.51722,,,,,,0
1017,1017,East & Barrington,STATE HWY 96 & BARRINGTON ST,43.151416,-77.580286,,,,,,0
1018,1018,East & Barrington,STATE HWY 96 & BARRINGTON ST,43.151418,-77.579699,,,,,,0
1019,1019,East & Berkeley,STATE HWY 96 & BERKELEY ST,43.150643,-77.576866,,,,,,0
1020,1020,East & Berkeley,STATE HWY 96 & BERKELEY ST,43.150691,-77.57644,,,,,,0
1021,1021,East & Briar Patch,STATE HWY 96 & BRIAR PATCH RD,43.103413,-77.514866,,,,,,0
1022,1022,East & Briar Patch,STATE HWY 96 & UNNAMED ST,43.103413,-77.515003,,,,,,0
1027,1027,East & Colby,STATE HWY 96 & COLBY ST,43.147043,-77.561346,,,,,,0
1028,1028,East & Colby,STATE HWY 96 & COLBY ST,43.147046,-77.561978,,,,,,0
1031,1031,East & Country Club,STATE HWY 96 & COUNTRY CLUB DR,43.111231,-77.517342,,,,,,0
1034,1034,East & Culver,STATE HWY 96 & CULVER RD,43.149493,-77.571933,,,,,,0
1035,1035,East & Culver,STATE HWY 96 & CULVER RD,43.149576,-77.571587,,,,,,0
1036,1036,East & East Blvd,STATE HWY 96 & EAST BLVD,43.148804,-77.568629,,,,,,0
1037,1037,East & East Blvd,STATE HWY 96 & EAST BLVD,43.1488,-77.56908,,,,,,0
1038,1038,East & Ellingwood,STATE HWY 96 & ELLINGWOOD DR,43.118311,-77.518119,,,,,,0
1040,1040,East & Elmwood,STATE HWY 96 & ELLINGWOOD DR,43.128632,-77.529239,,,,,,0
1041,1041,East & French,STATE HWY 96 & FRENCH RD,43.097629,-77.514226,,,,,,0
1042,1042,East & French,STATE HWY 96 & FRENCH RD,43.097474,-77.514061,,,,,,0
1043,1043,East & Golfside,,43.131815,-77.532409,,,,,,0
1044,1044,East & Goodman,STATE HWY 96 & GOODMAN ST N,43.153514,-77.588,,,,,,0
1045,1045,East & Goodman,STATE HWY 96 & GOODMAN ST N,43.153475,-77.588437,,,,,,0
1047,1047,East & Greenfield,STATE HWY 96 & GREENFIELD LN,43.135021,-77.536321,,,,,,0
1048,1048,East & Greenfield,,43.13486,-77.535917,,,,,,0
1049,1049,East & Grosvenor,,43.141595,-77.546542,,,,,,0
1056,1056,East & Knollwood,STATE HWY 96 & KNOLLWOOD DR,43.125348,-77.526556,,,,,,0
1057,1057,East & Knollwood,STATE HWY 96 & KNOLLWOOD DR,43.125483,-77.526417,,,,,,0
1060,1060,East & Lawrence,STATE HWY 96 & LAWRENCE ST,43.155388,-77.595439,,,,,,0
1062,1062,East & Meigs,STATE HWY 96 & MEIGS ST,43.154162,-77.590589,,,,,,0
1063,1063,East & Meigs,STATE HWY 96 & MEIGS ST,43.154001,-77.590651,,,,,,0
1064,1064,East & Merriman,STATE HWY 96 & MERRIMAN ST,43.152368,-77.583558,,,,,,0
1065,1065,East & New England,STATE HWY 96 & NEW ENGLAND DR,43.100331,-77.51405,,,,,,0
1066,1066,East & New England,STATE HWY 96 & NEW ENGLAND DR,43.100332,-77.513897,,,,,,0
1067,1067,East & New England,STATE HWY 96 & NEW ENGLAND DR,43.099834,-77.514096,,,,,,0
1075,1075,East & Park,STATE HWY 96 & PARK AVE,43.14669,-77.56013,,,,,,0
1077,1077,East & Parsons,STATE HWY 96 & PARSONS LN,43.131999,-77.532747,,,,,,0
1078,1078,East & Pelham,STATE HWY 96 & PELHAM RD,43.140687,-77.544394,,,,,,0
1079,1079,East & Pelham,,43.140753,-77.544837,,,,,,0
1080,1080,East & Penfield,STATE HWY 96 & COUNTY HWY 269,43.13743,-77.539241,,,,,,0
1081,1081,East & Penfield,STATE HWY 96 & COUNTY HWY 269,43.137524,-77.539628,,,,,,0
1082,1082,East & Portsmouth,STATE HWY 96 & PORTSMOUTH TER,43.15201,-77.582105,,,,,,0
1084,1084,East & Probert,STATE HWY 96 & PROBERT ST,43.146207,-77.558736,,,,,,0
1093,1093,East & Sylvania,STATE HWY 96 & SYLVANIA RD,43.113376,-77.517337,,,,,,0
1094,1094,East & Union,STATE HWY 96 & N UNION ST,43.155684,-77.596564,,,,,,0
1096,1096,East & Upton,STATE HWY 96 & UPTON PARK,43.153158,-77.587204,,,,,,0
1097,1097,East & Upton,STATE HWY 96 & UPTON PARK,43.153276,-77.587079,,,,,,0
1098,1098,East & Vick Park A,STATE HWY 96 & VICK PARK A,43.152364,-77.58405,,,,,,0
1099,1099,East & Vick Park B,STATE HWY 96 & VICK PARK B,43.152016,-77.582732,,,,,,0
1103,1103,East & Winton,STATE HWY 96 & PROBERT ST,43.145485,-77.555829,,,,,,0
1104,1104,East & Winton,STATE HWY 96 & WINTON RD N,43.145338,-77.554574,,,,,,0
1109,1109,E Henrietta & 1095 E Henrietta,STATE HWY 15A & ELMWOOD AVE,43.098544,-77.613439,,,,,,0
1110,1110,E Henrietta & 1525 E Henrietta,STATE HWY 15A & ELMWOOD AVE,43.090209,-77.610524,,,,,,0
1111,1111,E Henrietta & 1575 E Henrietta,,43.089287,-77.610224,,,,,,0
1113,1113,E Henrietta & 2500 E Henrietta,STATE HWY 15A & SUBURBAN PLZ,43.070415,-77.607255,,,,,,0
1115,1115,E Henrietta & 5000 E Henrietta,STATE HWY 15A & UNNAMED ST,43.023896,-77.63137,,,,,,0
1116,1116,E Henrietta & Boothe,STATE HWY 15A & BOOTHE ST,43.119364,-77.617889,,,,,,0
1117,1117,E Henrietta & Brighton Park,STATE HWY 15A & BRIGHTON PARK,43.118075,-77.617429,,,,,,0
1118,1118,E Henrietta & Brighton Park,STATE HWY 15A & BRIGHTON PARK,43.11832,-77.617693,,,,,,0
1119,1119,E Henrietta & Castle,E HENRIETTA RD & STATE HWY 15A,43.082544,-77.607201,,,,,,0
1120,1120,E Henrietta & Crittenden,,43.10532,-77.615797,,,,,,0
1121,1121,E Henrietta & E Squire,STATE HWY 15A & E SQUIRE DR,43.100072,-77.614362,,,,,,0
1122,1122,E Henrietta & Erie Station,STATE HWY 15A & COUNTY HWY 71,43.040139,-77.622837,,,,,,0
1123,1123,E Henrietta & Erie Station,STATE HWY 15A & COUNTY HWY 71,43.040421,-77.622511,,,,,,0
1124,1124,E Henrietta & Fort Hill,STATE HWY 15A & FORT HILL TER,43.12097,-77.618584,,,,,,0
1127,1127,E Henrietta & Holleybrook,STATE HWY 15A & HOLLYBROOK RD,43.077147,-77.606176,,,,,,0
1128,1128,E Henrietta & Jarley,STATE HWY 15A & JARLEY RD,43.090592,-77.610369,,,,,,0
1129,1129,E Henrietta & Jefferson,STATE HWY 15A & PARKING LOT,43.087577,-77.609561,,,,,,0
1130,1130,E Henrietta & Jefferson,STATE HWY 15A & STATE HWY 252,43.087755,-77.609191,,,,,,0
1131,1131,E Henrietta & Lehigh Station,STATE HWY 15A & STATE HWY 253,43.059127,-77.612399,,,,,,0
1132,1132,E Henrietta & Lehigh Station,STATE HWY 15A & STATE HWY 253,43.0595,-77.612462,,,,,,0
1133,1133,E Henrietta & E Squire,STATE HWY 15A & E SQUIRE DR,43.100941,-77.614353,,,,,,0
1134,1134,E Henrietta & MCC S Entrance,STATE HWY 15A & METRO PARK,43.098105,-77.613234,,,,,,0
1136,1136,E Henrietta & Metro,STATE HWY 15A & METRO PARK,43.097839,-77.613492,,,,,,0
1137,1137,E Henrietta & Monroe Community Hosp,STATE HWY 15A & STANYALE DR,43.113228,-77.616264,,,,,,0
1138,1138,E Henrietta & Palamino,STATE HWY 15A & PALAMINO DR,43.080382,-77.606348,,,,,,0
1139,1139,E Henrietta & Rosemount,STATE HWY 15A & ROSEMOUNT ST,43.120779,-77.618702,,,,,,0
1142,1142,E Henrietta & Skinner,STATE HWY 15A & UNNAMED ST,43.105876,-77.615595,,,,,,0
1143,1143,E Henrietta & South,STATE HWY 15A & SOUTH AVE,43.117175,-77.617019,,,,,,0
1144,1144,E Henrietta & Stanyale,STATE HWY 15A & STANYALE DR,43.113553,-77.616027,,,,,,0
1145,1145,E Henrietta & Stanyale,STATE HWY 15A & STANYALE DR,43.112787,-77.615985,,,,,,0
1146,1146,E Henrietta & Ward Hill,STATE HWY 15A & COUNTY HWY 69,43.02707,-77.629834,,,,,,0
1147,1147,E Henrietta & Ward Hill,STATE HWY 15A & COUNTY HWY 69,43.027271,-77.62958,,,,,,0
1149,1149,E Henrietta & Westfall,STATE HWY 15A & WESTFALL RD,43.11498,-77.616151,,,,,,0
1150,1150,E Henrietta & Westfall,STATE HWY 15A & WESTFALL RD,43.115314,-77.616461,,,,,,0
1151,1151,E Henrietta & White Spruce,STATE HWY 15A & WHITE SPRUCE BLVD,43.103034,-77.615411,,,,,,0
1152,1152,E Henrietta & White Spruce,STATE HWY 15A & E SQUIRE DR,43.102653,-77.614976,,,,,,0
1164,1164,E Squire & Crittenden,,43.104623,-77.621243,,,,,,0
1165,1165,E Squire & E Henrietta,E SQUIRE DR & STATE HWY 15A,43.100298,-77.614885,,,,,,0
1166,1166,E Squire & E Henrietta,E SQUIRE DR & STATE HWY 15A,43.100466,-77.615118,,,,,,0
1167,1167,E Squire & Lot 14,,43.102858,-77.621178,,,,,,0
1168,1168,E Squire & Lot 14,E SQUIRE DR & STATE HWY 15A,43.103217,-77.621287,,,,,,0
1169,1169,E Squire & Lot 18,E SQUIRE DR & STATE HWY 15A,43.104515,-77.621346,,,,,,0
1170,1170,E Squire & Lot 5,E SQUIRE DR & STATE HWY 15A,43.100843,-77.617521,,,,,,0
1171,1171,E Squire & Lot 6,E SQUIRE DR & STATE HWY 15A,43.10096,-77.617603,,,,,,0
1172,1172,E Squire & W Squire,E SQUIRE DR & W SQUIRE DR,43.101647,-77.621013,,,,,,0
1173,1173,E Squire & W Squire,,43.101599,-77.620809,,,,,,0
1178,1178,Eastman Ave Loop,,43.202111,-77.63445,,,,,,0
1179,1179,Eastview Park & Ride,EASTVIEW MALL & MIDLAND DR,43.026989,-77.442391,,,,,,0
1180,1180,Eastview Mall Sears,,43.030699,-77.443124,,,,,,0
1195,1195,Mann & Edgemere,MANN RD & EDGEMERE DR,43.271283,-77.631354,,,,,,0
1205,1205,Edgewood & Pamela,,43.097552,-77.567505,,,,,,0
1206,1206,Edgewood & Pamela,COUNTY HWY 102 & PAMELA LN,43.09763,-77.567728,,,,,,0
1208,1208,Edgewood & Terrain,COUNTY HWY 102 & TERRAIN DR,43.101353,-77.565453,,,,,,0
1214,1214,Edison Tech High School,UNNAMED ST,43.176898,-77.671158,,,,,,0
1215,1215,Pittsford Palmyra & Loud,STATE HWY 31 & LOUD RD,43.064387,-77.407643,,,,,,0
1216,1216,Pittsford Palmyra & Mason,STATE HWY 31 & MASON RD,43.0646,-77.406841,,,,,,0
1218,1218,Elmgrove & Citrus,STATE HWY 386 & CITRUS DR,43.171159,-77.732492,,,,,,0
1219,1219,Elmgrove & Elmgrove Pk,STATE HWY 386 & ELMGROVE PARK,43.161417,-77.732263,,,,,,0
1220,1220,Elmgrove & Elmgrove Pk,STATE HWY 386 & ELMGROVE PARK,43.16146,-77.732539,,,,,,0
1222,1222,Elmgrove & Lyell,STATE HWY 386 & COUNTY HWY 117,43.164277,-77.7323,,,,,,0
1223,1223,Elmgrove & Lyell,STATE HWY 386 & COUNTY HWY 117,43.163926,-77.732546,,,,,,0
1227,1227,Elmgrove & 880 Elmgrove,STATE HWY 386 & MIDDLE RD,43.154558,-77.732158,,,,,,0
1229,1229,Elmridge Ctr & Chili's,,43.215415,-77.73075,,,,,,0
1230,1230,Elmridge Ctr & Doan Buick,ELMRIDGE CENTER DR & DRIVING PARK AVE,43.214953,-77.727743,,,,,,0
1231,1231,Elmwood & 1000 Elmwood,ELMWOOD AVE & CONNECTING RD,43.125004,-77.612528,,,,,,0
1232,1232,Elmwood & 116 Elmwood,STATE HWY 383 & RAMP,43.125123,-77.636312,,,,,,0
1233,1233,Elmwood & 1580 Elmwood,ELMWOOD AVE & COUNTY HWY 87,43.125579,-77.595614,,,,,,0
1235,1235,Elmwood & 479 Elmwood,ELMWOOD AVE & CONNECTING RD,43.123758,-77.627759,,,,,,0
1236,1236,Elmwood & 70 Elmwood,STATE HWY 383 & RAMP,43.125491,-77.637417,,,,,,0
1237,1237,Elmwood & 70 Elmwood,STATE HWY 383 & RAMP,43.125318,-77.637435,,,,,,0
1238,1238,Elmwood & Al Sigl Ctr,ELMWOOD AVE & UNNAMED ST,43.125116,-77.609776,,,,,,0
1239,1239,Elmwood & Antlers,COUNTY HWY 87 & ANTLERS DR,43.126357,-77.570929,,,,,,0
1241,1241,Elmwood & Azalea,ELMWOOD AVE & AZALEA RD,43.125203,-77.606913,,,,,,0
1242,1242,Elmwood & Azalea,ELMWOOD AVE & AZALEA RD,43.125264,-77.605707,,,,,,0
1243,1243,Elmwood & Azalea,ELMWOOD AVE & UNNAMED ST,43.125044,-77.60683,,,,,,0
1244,1244,Elmwood & Bonnie Brae,COUNTY HWY 87 & BONNIE BRAE AVE,43.12631,-77.57245,,,,,,0
1245,1245,Elmwood & Bonnie Brae,COUNTY HWY 87 & BONNIE BRAE AVE,43.126124,-77.572846,,,,,,0
1248,1248,Elmwood & Clinton,COUNTY HWY 87 & CLINTON AVE S,43.125719,-77.592357,,,,,,0
1249,1249,Elmwood & Clinton,ELMWOOD AVE & S CLINTON AVE,43.125483,-77.593299,,,,,,0
1250,1250,Elmwood & Clintwood,COUNTY HWY 87 & CLINTWOOD DR,43.125775,-77.589505,,,,,,0
1251,1251,Elmwood & Clintwood,COUNTY HWY 87 & CLINTWOOD DR,43.125689,-77.589878,,,,,,0
1252,1252,Elmwood & Cobb,COUNTY HWY 87 & COBB TER,43.125802,-77.585544,,,,,,0
1253,1253,Elmwood & Cobb,COUNTY HWY 87 & COBB TER,43.125906,-77.585394,,,,,,0
1257,1257,Elmwood & 625 Elmwood,ELMWOOD AVE & CONNECTING RD,43.124566,-77.623584,,,,,,0
1258,1258,Elmwood & Elmwood Ter,ELMWOOD AVE & ELMWOOD TER,43.125434,-77.596113,,,,,,0
1260,1260,Elmwood & Genesee Valley Park,,43.123809,-77.631996,,,,,,0
1262,1262,Elmwood & Goodman,ELMWOOD AVE & UNNAMED ST,43.125157,-77.604377,,,,,,0
1264,1264,Elmwood & Hollywood,COUNTY HWY 87 & HOLLYWOOD AVE,43.126274,-77.568147,,,,,,0
1265,1265,Elmwood & Hollywood,COUNTY HWY 87 & HOLLYWOOD AVE,43.126418,-77.56795,,,,,,0
1269,1269,Eastman Dental,ELMWOOD AVE & CONNECTING RD,43.124361,-77.622107,,,,,,0
1270,1270,Elmwood & Lilac,COUNTY HWY 87 & LILAC DR,43.125268,-77.601039,,,,,,0
1271,1271,Elmwood & Lilac,COUNTY HWY 87 & LILAC DR,43.125433,-77.600904,,,,,,0
1272,1272,Elmwood & Mt Hope,ELMWOOD AVE & LILAC DR,43.124801,-77.617166,,,,,,0
1273,1273,Elmwood & opp Genesee Valley Park,STATE HWY 383 & UNNAMED ST,43.125075,-77.635408,,,,,,0
1274,1274,Elmwood Loop,,43.124604,-77.634764,,,,,,0
1276,1276,Elmwood & Roby,COUNTY HWY 87 & ROBY DR,43.126043,-77.576034,,,,,,0
1277,1277,Elmwood & Roby,COUNTY HWY 87 & ROBY DR,43.126193,-77.576053,,,,,,0
1278,1278,Elmwood & Rochester Psych Ctr,ELMWOOD AVE & UNNAMED ST,43.124909,-77.61012,,,,,,0
1279,1279,School of Medicine,ELMWOOD AVE & RAMP,43.123474,-77.627917,,,,,,0
1281,1281,Elmwood & South,ELMWOOD AVE & SOUTHVIEW TER,43.124746,-77.614601,,,,,,0
1282,1282,Elmwood & South,ELMWOOD AVE & SOUTH AVE,43.124973,-77.614109,,,,,,0
1287,1287,Emerson & 1292 Emerson,EMERSON ST & UNNAMED ST,43.173934,-77.66535,,,,,,0
1288,1288,Emerson & 1560 Emerson,EMERSON ST & GM AC ROCHESTER,43.173939,-77.672441,,,,,,0
1289,1289,Emerson & 1570 Emerson,EMERSON ST & GM AC ROCHESTER,43.173804,-77.672849,,,,,,0
1294,1294,Emerson & Backus,EMERSON ST & BACKUS ST,43.173647,-77.632681,,,,,,0
1295,1295,Emerson & Colfax,EMERSON ST & COLFAX ST,43.173791,-77.669993,,,,,,0
1296,1296,Emerson & Colfax,EMERSON ST & COLFAX ST,43.173959,-77.669456,,,,,,0
1298,1298,Emerson & Curlew,EMERSON ST & CURLEW ST,43.173923,-77.647783,,,,,,0
1299,1299,Emerson & Santee,,43.173953,-77.643413,,,,,,0
1300,1300,Emerson & Dewey,EMERSON ST & DEWEY AVE,43.173584,-77.638646,,,,,,0
1301,1301,Emerson & Dewey,EMERSON ST & DEWEY AVE,43.173683,-77.639117,,,,,,0
1302,1302,Emerson & McCrackanville,EMERSON ST & GM AC ROCHESTER,43.173955,-77.675012,,,,,,0
1303,1303,Emerson & McCrackanville,EMERSON ST & GM AC ROCHESTER,43.173814,-77.674332,,,,,,0
1304,1304,Emerson & McNaughton,EMERSON ST & MCNAUGHTON ST,43.173822,-77.651643,,,,,,0
1307,1307,Emerson & Mt Read,EMERSON ST & MOUNT READ BLVD,43.173817,-77.658291,,,,,,0
1308,1308,Emerson & Mt Read,EMERSON ST & MOUNT READ BLVD,43.173933,-77.658663,,,,,,0
1309,1309,Emerson & Northampton,EMERSON ST & NORTHAMPTON ST,43.173921,-77.656193,,,,,,0
1310,1310,Emerson & Northampton,,43.1738,-77.656468,,,,,,0
1311,1311,Emerson & Polaris,EMERSON ST & POLARIS ST,43.173938,-77.667477,,,,,,0
1312,1312,Emerson & Polaris,EMERSON ST & POLARIS ST,43.173793,-77.667754,,,,,,0
1313,1313,Emerson & Robin,EMERSON ST & ROBIN ST,43.173817,-77.645622,,,,,,0
1314,1314,Emerson & Robin,EMERSON ST & ROBIN ST,43.17392,-77.645505,,,,,,0
1315,1315,Emerson & Santee,EMERSON ST & SANTEE ST,43.173829,-77.643208,,,,,,0
1316,1316,Emerson & Stenson,EMERSON ST & STENSON ST,43.173789,-77.663009,,,,,,0
1317,1317,Emerson & Stenson,EMERSON ST & STENSON ST,43.173942,-77.662804,,,,,,0
1318,1318,Emerson & 1292 Emerson,EMERSON ST & UNNAMED ST,43.173776,-77.665283,,,,,,0
1320,1320,Emerson & W,EMERSON ST & LEE RD,43.173831,-77.677139,,,,,,0
1321,1321,Empire & 1700 Empire,STATE HWY 404 & SMITH RD,43.185165,-77.50626,,,,,,0
1323,1323,Empire & 1998 Empire,STATE HWY 404 & TERREL DR,43.193957,-77.501598,,,,,,0
1324,1324,Empire & 2180 Empire,STATE HWY 404 & COUNTY HWY 14,43.200993,-77.497929,,,,,,0
1325,1325,Empire & Route 590 Exit Ramp,STATE HWY 404 & STONEHENGE RD,43.176827,-77.540586,,,,,,0
1326,1326,Empire & Autumn,STATE HWY 404 & UNNAMED ST,43.184822,-77.506761,,,,,,0
1327,1327,Empire & Bay Towne Plaza,STATE HWY 404 & UNNAMED ST,43.19137,-77.503263,,,,,,0
1328,1328,Empire & Culver,EMPIRE BLVD & STATE RTE 941B,43.176484,-77.556578,,,,,,0
1329,1329,Empire & Culver,EMPIRE BLVD & STATE RTE 941B,43.176343,-77.5568,,,,,,0
1330,1330,Empire & Daytona,STATE HWY 404 & DAYTONA AVE,43.181062,-77.508469,,,,,,0
1333,1333,Empire & Gravel,STATE HWY 404 & RAMP,43.200955,-77.497718,,,,,,0
1334,1334,Empire & Plank,STATE HWY 404 & COUNTY HWY 11,43.182631,-77.507919,,,,,,0
1335,1335,Empire & Plank,STATE HWY 404 & COUNTY HWY 11,43.18229,-77.507819,,,,,,0
1336,1336,Empire & Empire Marina,STATE HWY 404 & COUNTY HWY 11,43.174469,-77.518868,,,,,,0
1337,1337,Empire & Empire Marina,,43.1742,-77.518647,,,,,,0
1340,1340,Empire & Shelford,STATE RTE 941B & SHELFORD RD,43.176564,-77.550142,,,,,,0
1341,1341,Empire & Sunrise Plaza,STATE HWY 404 & SMITH RD,43.18726,-77.505481,,,,,,0
1342,1342,Empire & Sydenham,,43.177061,-77.539169,,,,,,0
1344,1344,Empire & Terrel,STATE HWY 404 & TERREL DR,43.194245,-77.501776,,,,,,0
1345,1345,Empire & Webster Manor,STATE HWY 404 & WEBSTER MANOR DR,43.198883,-77.499284,,,,,,0
1346,1346,English & Route 390 Overpass,COUNTY HWY 109 & STATE HWY 390 N,43.238438,-77.670068,,,,,,0
1347,1347,English & Route 390 Overpass,COUNTY HWY 109 & STATE HWY 390 N,43.238282,-77.670174,,,,,,0
1348,1348,English & Barcrest,COUNTY HWY 109 & BARCREST DR,43.238309,-77.660568,,,,,,0
1350,1350,English & Fetzner,COUNTY HWY 109 & COUNTY HWY 264,43.238492,-77.67913,,,,,,0
1352,1352,English & Hardwood,COUNTY HWY 109 & HARDWOOD LN,43.238374,-77.690976,,,,,,0
1355,1355,English & Jefreelind,COUNTY HWY 109 & JEFREELIND DR,43.2383,-77.673754,,,,,,0
1363,1363,English & Slater Creek,COUNTY HWY 109 & SLATER CREEK DR,43.238477,-77.660598,,,,,,0
1364,1364,English & Stoneycreek,COUNTY HWY 109 & STONEYCREEK DR,43.238339,-77.684931,,,,,,0
1368,1368,Estes & Corrigan,ESTES ST & BUFFALO RD,43.258195,-77.610438,,,,,,0
1369,1369,Exchange & Ford,STATE HWY 383 & RAMP,43.143319,-77.615545,,,,,,0
1370,1370,Exchange & Ford,STATE HWY 383 & RAMP,43.143359,-77.615024,,,,,,0
1375,1375,Fairport & 203 Fairport,STATE HWY 31F & HARWOOD LN,43.109614,-77.504685,,,,,,0
1376,1376,Fairport & 353 Fairport,STATE HWY 31F & PITTSFORD MANOR LN,43.104415,-77.48759,,,,,,0
1378,1378,Fairport & Baird,STATE HWY 31F & COUNTY HWY 34,43.102146,-77.465895,,,,,,0
1379,1379,Fairport & Baird,STATE HWY 31F & COUNTY HWY 34,43.102224,-77.465305,,,,,,0
1380,1380,Fairport & Blossom,STATE HWY 31F & BLOSSOM LN,43.102371,-77.473689,,,,,,0
1382,1382,Fairport & Crescent East,STATE HWY 31F & CRESCENT RD,43.102255,-77.473362,,,,,,0
1384,1384,Fairport & Harwood,STATE HWY 31F & HARWOOD LN,43.109858,-77.504811,,,,,,0
1385,1385,Fairport & Jefferson,STATE HWY 31F & COUNTY HWY 40,43.101574,-77.462218,,,,,,0
1386,1386,Fairport & Jefferson,STATE HWY 31F & COUNTY HWY 40,43.101359,-77.462061,,,,,,0
1387,1387,Fairport & Lincoln,,43.102581,-77.480574,,,,,,0
1389,1389,Fairport & Marsh,STATE HWY 31F & MARSH RD,43.10262,-77.481348,,,,,,0
1390,1390,Fairport & OConnor,STATE HWY 31F & OCONNOR RD,43.100849,-77.459329,,,,,,0
1391,1391,Fairport & Orchard,STATE HWY 31F & ORCHARD LN,43.102319,-77.476175,,,,,,0
1392,1392,Fairport & Orchard,STATE HWY 31F & ORCHARD LN,43.102147,-77.47636,,,,,,0
1393,1393,Fairport Park & Ride,PARKING LOT,43.112455,-77.508556,,,,,,0
1395,1395,Fairport & St John Fisher West Ent,STATE HWY 96 & EAST AVE,43.117418,-77.517271,,,,,,0
1398,1398,Fairport Baptist Home,FAIRPORT BAPTIST HOME CIR & COUNTY HWY 136,43.109299,-77.44136,,,,,,0
1402,1402,Farmington & Fairfax,,43.165574,-77.550927,,,,,,0
1403,1403,Farmington & Mildorf,FARMINGTON RD & WYAND CRES,43.165506,-77.553202,,,,,,0
1404,1404,Farmington & Presque,FARMINGTON RD & PRESQUE ST,43.16555,-77.55212,,,,,,0
1406,1406,Farmington & Winton,,43.165842,-77.544796,,,,,,0
1408,1408,Fitzhugh & Fitzhugh Pl,FITZHUGH ST S & FITZHUGH PL S,43.145461,-77.614151,,,,,,0
1409,1409,Fitzhugh & Plymouth,FITZHUGH ST S & PLYMOUTH AVE S,43.148786,-77.613201,,,,,,0
1410,1410,Fitzhugh & Plymouth,FITZHUGH ST S & PLYMOUTH AVE S,43.148839,-77.613033,,,,,,0
1411,1411,Fitzhugh Pl & Fitzhugh,FITZHUGH PL S & FITZHUGH ST S,43.145684,-77.614063,,,,,,0
1412,1412,Five Mile Line & Belvedere,COUNTY HWY 18 & BELVEDERE HTS,43.127846,-77.475991,,,,,,0
1413,1413,Five Mile Line & Belvedere,COUNTY HWY 18 & BELVEDERE HTS,43.12771,-77.475827,,,,,,0
1414,1414,Five Mile Line & Brebeuf,COUNTY HWY 18 & BREBEUF DR,43.12661,-77.476049,,,,,,0
1418,1418,Five Mile Line & Edgewood,COUNTY HWY 18 & EDGEWOOD DR,43.124996,-77.476088,,,,,,0
1420,1420,Five Mile Line & Harmon,COUNTY HWY 18 & HARMON RD,43.124812,-77.476004,,,,,,0
1425,1425,Ford & Adams,FORD ST & COUNTY HWY 13,43.149034,-77.620659,,,,,,0
1426,1426,Ford & Adams,FORD ST & ADAMS ST,43.148665,-77.620389,,,,,,0
1427,1427,Ford & Atkinson,FORD ST & ATKINSON ST,43.149683,-77.620411,,,,,,0
1428,1428,Ford & Atkinson,FORD ST & BEAVER ST,43.149643,-77.620667,,,,,,0
1429,1429,Ford & Favor,FORD ST & FAVOR ST,43.152168,-77.620607,,,,,,0
1430,1430,Ford & Main,BOYS CLUB PL & STATE HWY 33,43.15364,-77.620449,,,,,,0
1431,1431,Ford & Main,,43.153658,-77.620288,,,,,,0
1432,1432,Ford & Samuel McCree,,43.146844,-77.620059,,,,,,0
1434,1434,Ford & Tremont,,43.148017,-77.620616,,,,,,0
1435,1435,Ford & Tremont,FORD ST & TREMONT ST,43.147811,-77.620244,,,,,,0
1437,1437,Ford & Troup,FORD ST & TROUP ST,43.151419,-77.620674,,,,,,0
1438,1438,Ford & Troup,,43.151106,-77.620533,,,,,,0
1442,1442,4th Section & Viking,STATE HWY 31 & VIKING WAY,43.198425,-77.950881,,,,,,0
1443,1443,Frederick Douglass & Adams,FREDERICK DOUGLAS ST & ADAMS ST,43.148615,-77.614274,,,,,,0
1444,1444,Frederick Douglass & Edinburgh,FREDERICK DOUGLAS ST & EDINBURGH ST,43.147128,-77.615587,,,,,,0
1445,1445,Frederick Douglass & Edinburgh,FREDERICK DOUGLAS ST & EDINBURGH ST,43.146924,-77.61541,,,,,,0
1446,1446,Frederick Douglass & Glasgow,FREDERICK DOUGLAS ST & GLASGOW ST,43.146409,-77.616378,,,,,,0
1447,1447,Frederick Douglass & Nathaniel Sch,FREDERICK DOUGLAS ST & GLASGOW ST,43.148391,-77.614647,,,,,,0
1449,1449,French & 493 French,FRENCH RD & CHARTWELL CT,43.099174,-77.56806,,,,,,0
1451,1451,French & French Court West,FRENCH RD & FRENCH CT,43.099172,-77.573643,,,,,,0
1455,1455,French & Eastbrooke North,FRENCH RD & EASTBROOKE LN,43.101922,-77.576513,,,,,,0
1457,1457,French & French Creek,FRENCH RD & FRENCH CREEK DR,43.103768,-77.576211,,,,,,0
1458,1458,French & French Creek,FRENCH RD & FRENCH CREEK DR,43.102323,-77.576484,,,,,,0
1459,1459,French & French Woods North,FRENCH RD & FRENCHWOODS CIR,43.100352,-77.576817,,,,,,0
1460,1460,French & French Woods North,FRENCH RD & FRENCHWOODS CIR,43.10011,-77.576655,,,,,,0
1462,1462,French & French Woods South,FRENCH RD & FRENCHWOODS CIR,43.098997,-77.575036,,,,,,0
1463,1463,French & Greystone,FRENCH RD & GREYSTONE LN,43.103568,-77.57604,,,,,,0
1469,1469,Genesee & 1170 Genesee,STATE HWY 383 & ARVINE HTS,43.126618,-77.638727,,,,,,0
1471,1471,Genesee & Aberdeen,GENESEE ST & ABERDEEN ST,43.139615,-77.636095,,,,,,0
1472,1472,Genesee & Aldine,GENESEE ST & ALDINE ST,43.14137,-77.636107,,,,,,0
1473,1473,Genesee & Arnett,,43.142475,-77.636169,,,,,,0
1474,1474,Genesee & Arnett,GENESEE ST & ARNETT BLVD,43.142035,-77.635916,,,,,,0
1476,1476,Genesee & Arvine Pk,STATE HWY 383 & ARVINE PARK,43.128207,-77.637206,,,,,,0
1477,1477,Genesee & Avon Village Hall,GENESEE ST & ARVINE PARK,42.91084,-77.746422,,,,,,0
1478,1478,Genesee & Barton,GENESEE ST & BARTON ST,43.132723,-77.636101,,,,,,0
1479,1479,Genesee & Barton,GENESEE ST & BARTON ST,43.132501,-77.635885,,,,,,0
1480,1480,Genesee & Brooks,GENESEE ST & BROOKS AVE,43.131321,-77.636094,,,,,,0
1483,1483,Genesee & Congress,STATE HWY 383 & CONGRESS AVE,43.129299,-77.636863,,,,,,0
1484,1484,Genesee & Earl,GENESEE ST & EARL ST,43.136822,-77.635932,,,,,,0
1485,1485,Genesee & Elmdorf,GENESEE ST & ELMDORF AVE,43.136795,-77.636114,,,,,,0
1486,1486,Genesee & Frost,GENESEE ST & FROST AVE,43.143641,-77.636138,,,,,,0
1487,1487,Genesee & Frost,,43.143666,-77.636022,,,,,,0
1488,1488,Genesee & Hawley,GENESEE ST & HAWLEY ST,43.140774,-77.635911,,,,,,0
1489,1489,Genesee & Kirkland,GENESEE ST & KIRKLAND RD,43.146701,-77.636144,,,,,,0
1490,1490,Genesee & Main,GENESEE ST & STATE HWY 33,43.149916,-77.636202,,,,,,0
1491,1491,Genesee & Main,GENESEE ST & STATE HWY 33,43.150168,-77.635948,,,,,,0
1492,1492,Genesee & Melrose,GENESEE ST & MELROSE ST,43.138615,-77.636099,,,,,,0
1493,1493,Genesee & Monica,GENESEE ST & MONICA ST,43.133925,-77.636107,,,,,,0
1494,1494,Genesee & Monica,GENESEE ST & MONICA ST,43.133736,-77.635887,,,,,,0
1497,1497,Genesee & Sawyer,GENESEE ST & SAWYER ST,43.13512,-77.636104,,,,,,0
1498,1498,Genesee & Shelter,GENESEE ST & SHELTER ST,43.13877,-77.635933,,,,,,0
1499,1499,Genesee & Spruce,STATE HWY 383 & SPRUCE AVE,43.128383,-77.637305,,,,,,0
1500,1500,Genesee & Stratford,GENESEE ST & STRATFORD PARK,43.134292,-77.635887,,,,,,0
1501,1501,Genesee & Superior,,43.144821,-77.636172,,,,,,0
1502,1502,Genesee & Superior,GENESEE ST & SUPERIOR ST,43.145079,-77.635963,,,,,,0
1503,1503,Genesee & Terrace,STATE HWY 383 & TERRACE PARK,43.129973,-77.636649,,,,,,0
1504,1504,Genesee & Weldon,STATE HWY 383 & WELDON ST,43.127449,-77.637943,,,,,,0
1505,1505,Genesee Park & 19 Genesee Park,GENESEE PARK BLVD & CUSTER ST,43.126349,-77.63951,,,,,,0
1506,1506,Genesee Park & 319 Genesee Park,GENESEE PARK BLVD & POST AVE,43.126265,-77.648012,,,,,,0
1509,1509,Genesee Park & 611 Genesee Park,GENESEE PARK BLVD & POST AVE,43.129501,-77.653711,,,,,,0
1510,1510,Genesee Park & 614 Genesee Park,GENESEE PARK BLVD & POST AVE,43.129616,-77.653548,,,,,,0
1514,1514,Genesee Park & Brooks,GENESEE PARK BLVD & ARNETT BLVD,43.130692,-77.653549,,,,,,0
1515,1515,Genesee Park & Brooks,GENESEE PARK BLVD & STATE HWY 204,43.130503,-77.653733,,,,,,0
1516,1516,Genesee Park & Chili,GENESEE PARK BLVD & ARNETT BLVD,43.142597,-77.658543,,,,,,0
1517,1517,Genesee Park & Custer,GENESEE PARK BLVD & CUSTER ST,43.126434,-77.640634,,,,,,0
1519,1519,Genesee Park & Gillette,GENESEE PARK BLVD & GILLETTE ST,43.126387,-77.648451,,,,,,0
1520,1520,Genesee Park & Hillendale,GENESEE PARK BLVD & HILLENDALE ST,43.134426,-77.656261,,,,,,0
1521,1521,Genesee Park & Hillendale,GENESEE PARK BLVD & HILLENDALE ST,43.134274,-77.656001,,,,,,0
1526,1526,Genesee Park & Margaret,GENESEE PARK BLVD & MARGARET ST,43.13206,-77.654576,,,,,,0
1527,1527,Genesee Park & Margaret,GENESEE PARK BLVD & MARGARET ST,43.132086,-77.654443,,,,,,0
1528,1528,Genesee Park & Marlborough,GENESEE PARK BLVD & MARLBOROUGH RD,43.139585,-77.658189,,,,,,0
1529,1529,Genesee Park & Marlborough,GENESEE PARK BLVD & MARLBOROUGH RD,43.139417,-77.658048,,,,,,0
1532,1532,Genesee Park & Penhurst,GENESEE PARK BLVD & PENHURST ST,43.137768,-77.658283,,,,,,0
1533,1533,Genesee Park & Penhurst,GENESEE PARK BLVD & PENHURST ST,43.137874,-77.658482,,,,,,0
1534,1534,Genesee Park & Pioneer,GENESEE PARK BLVD & PIONEER ST,43.126452,-77.642556,,,,,,0
1536,1536,Genesee Park & Raeburn,GENESEE PARK BLVD & RAEBURN AVE,43.136293,-77.65761,,,,,,0
1540,1540,Genesee Park & Rosalind,GENESEE PARK BLVD & ROSALIND ST,43.132928,-77.655199,,,,,,0
1541,1541,Genesee Park & Rosalind,GENESEE PARK BLVD & ROSALIND ST,43.132846,-77.654975,,,,,,0
1542,1542,Genesee Park & Roxborough,GENESEE PARK BLVD & ROXBOROUGH RD,43.141107,-77.657986,,,,,,0
1543,1543,Genesee Park & Roxborough,GENESEE PARK BLVD & ROXBOROUGH RD,43.141284,-77.658225,,,,,,0
1544,1544,Genesee Park & Thurston,GENESEE PARK BLVD & THURSTON RD,43.126902,-77.650708,,,,,,0
1545,1545,Genesee Park & Thurston,GENESEE PARK BLVD & THURSTON RD,43.127027,-77.65122,,,,,,0
1548,1548,Genesee Park & Woodbine,GENESEE PARK BLVD & WOODBINE AVE,43.126421,-77.645008,,,,,,0
1549,1549,Genesee Park & Woodbine,GENESEE PARK BLVD & WOODBINE AVE,43.126276,-77.645034,,,,,,0
1553,1553,Glide & 1040 Glide,GLIDE ST & EMERSON ST,43.172477,-77.654241,,,,,,0
1554,1554,Glide & 1054 Glide,GLIDE ST & EMERSON ST,43.172738,-77.654066,,,,,,0
1555,1555,Glide & 980 Glide,GLIDE ST & BERGEN ST,43.171116,-77.654061,,,,,,0
1556,1556,Glide & Bergen,GLIDE ST & BERGEN ST,43.16987,-77.654063,,,,,,0
1557,1557,Glide & Bergen,GLIDE ST & BERGEN ST,43.170049,-77.6542,,,,,,0
1558,1558,Glide & Emerson,GLIDE ST & EMERSON ST,43.173658,-77.654063,,,,,,0
1559,1559,Glide & Emerson,GLIDE ST & EMERSON ST,43.173469,-77.65423,,,,,,0
1560,1560,Glide & Freeland,GLIDE ST & FREELAND ST,43.166283,-77.654077,,,,,,0
1561,1561,Glide & Freeland,GLIDE ST & FREELAND ST,43.166535,-77.654235,,,,,,0
1562,1562,Glide & Lyell,GLIDE ST & STATE HWY 31,43.164893,-77.65423,,,,,,0
1563,1563,Glide & Otis,GLIDE ST & OTIS ST,43.168779,-77.65426,,,,,,0
1564,1564,Glide & Otis,GLIDE ST & OTIS ST,43.168579,-77.65407,,,,,,0
1566,1566,Goodman & Main,GOODMAN ST N & MAIN ST E,43.16235,-77.583553,,,,,,0
1567,1567,Goodman & Ashwood,GOODMAN ST N & ASHWOOD DR,43.183729,-77.575984,,,,,,0
1568,1568,Goodman & Baker,COUNTY HWY 108 & BAKER AVE,43.190749,-77.576363,,,,,,0
1569,1569,Goodman & Baker,COUNTY HWY 108 & BAKER AVE,43.190971,-77.57658,,,,,,0
1570,1570,Goodman & Bay,GOODMAN ST N & BAY ST,43.171103,-77.578753,,,,,,0
1571,1571,Goodman & Bay,GOODMAN ST N & BAY ST,43.17091,-77.578704,,,,,,0
1572,1572,Goodman & Benton,GOODMAN ST S & BENTON ST,43.136972,-77.597586,,,,,,0
1573,1573,Goodman & Blakeslee,GOODMAN ST N & BLAKESLEE ST,43.186776,-77.576149,,,,,,0
1574,1574,Goodman & Caroline,GOODMAN ST S & CAROLINE ST,43.138066,-77.596944,,,,,,0
1575,1575,Goodman & Caroline,GOODMAN ST S & CAROLINE ST,43.138291,-77.596961,,,,,,0
1576,1576,Goodman & Central Park,GOODMAN ST N & CENTRAL PARK,43.168882,-77.580013,,,,,,0
1577,1577,Goodman & Central Park,GOODMAN ST N & CENTRAL PARK,43.168445,-77.58003,,,,,,0
1578,1578,Goodman & Clifford,GOODMAN ST N & CLIFFORD AVE,43.176054,-77.576152,,,,,,0
1579,1579,Goodman & Clifford,GOODMAN ST N & CLIFFORD AVE,43.176332,-77.57579,,,,,,0
1580,1580,Goodman & Corwin,GOODMAN ST N & CORWIN AVE,43.186345,-77.5763,,,,,,0
1581,1581,Goodman & Dix,COUNTY HWY 108 & DIX ST,43.19353,-77.576519,,,,,,0
1582,1582,Goodman & Dix,COUNTY HWY 108 & DIX ST,43.193991,-77.576757,,,,,,0
1583,1583,Goodman & Elmwood,GOODMAN ST S & COUNTY HWY 87,43.125658,-77.604367,,,,,,0
1584,1584,Goodman & Elmwood,GOODMAN ST S & COUNTY HWY 87,43.12585,-77.604107,,,,,,0
1585,1585,Goodman & Fair,GOODMAN ST N & FAIR PL,43.165702,-77.581701,,,,,,0
1586,1586,Goodman & Ferndale,GOODMAN ST N & FERNDALE CRES,43.166345,-77.581183,,,,,,0
1587,1587,Goodman & Fernwood Ave,GOODMAN ST N & FERNWOOD AVE,43.179071,-77.575732,,,,,,0
1588,1588,Goodman & Fernwood Ave,GOODMAN ST N & FERNWOOD AVE,43.179012,-77.575843,,,,,,0
1589,1589,Goodman & Forester,GOODMAN ST N & FORESTER ST,43.172653,-77.577789,,,,,,0
1590,1590,Goodman & Forester,GOODMAN ST N & FORESTER ST,43.17282,-77.577833,,,,,,0
1591,1591,Goodman & Garson,GOODMAN ST N & GARSON AVE,43.164134,-77.582641,,,,,,0
1592,1592,Goodman & Gregory Hill,GOODMAN ST S & GREGORY HILL RD,43.133634,-77.599651,,,,,,0
1593,1593,Goodman & Hayward,Goodman St & Main St,43.162759,-77.583103,,,,,,0
1594,1594,Goodman & Highland,GOODMAN ST S & HIGHLAND AVE,43.129947,-77.601268,,,,,,0
1595,1595,Goodman & Highland,GOODMAN ST S & HIGHLAND AVE,43.130426,-77.601044,,,,,,0
1596,1596,Goodman & Highland Pky,GOODMAN ST S & HIGHLAND PKWY,43.13326,-77.59974,,,,,,0
1598,1598,Goodman & Highland / Elmwood,GOODMAN ST S,43.127887,-77.603305,,,,,,0
1599,1599,Goodman & Irondequoit Mall,COUNTY HWY 108 & COUNTY HWY 241,43.198221,-77.576833,,,,,,0
1600,1600,Goodman & Keller,GOODMAN ST N & KELLER ST,43.174359,-77.577033,,,,,,0
1601,1601,Goodman & Linden,GOODMAN ST S & LINDEN ST,43.136542,-77.59799,,,,,,0
1602,1602,Goodman & Marne,GOODMAN ST N & MARNE ST,43.182305,-77.5759,,,,,,0
1604,1604,Goodman & Northland,GOODMAN ST N & NORTHLAND AVE,43.181599,-77.576015,,,,,,0
1605,1605,Goodman & Northland,GOODMAN ST N & NORTHLAND AVE,43.181325,-77.575849,,,,,,0
1606,1606,Goodman & Norton,GOODMAN ST N & NORTON ST,43.187787,-77.576403,,,,,,0
1607,1607,Goodman & Norton,GOODMAN ST N & NORTON ST,43.188154,-77.576245,,,,,,0
1608,1608,Goodman & Peck,GOODMAN ST N & PECK ST,43.164837,-77.58217,,,,,,0
1609,1609,Goodman & Peck,GOODMAN ST N & PECK ST,43.164742,-77.582062,,,,,,0
1610,1610,Goodman & Pennsylvania,GOODMAN ST N & PENNSYLVANIA AVE,43.166576,-77.581246,,,,,,0
1611,1611,Goodman & Perkins,GOODMAN ST N & PERKINS AVE,43.183992,-77.57616,,,,,,0
1612,1612,Goodman & Pinetum,GOODMAN ST S & PINETUM DR,43.132213,-77.600425,,,,,,0
1613,1613,Goodman & Pinetum,GOODMAN ST S & PINETUM DR,43.132067,-77.600427,,,,,,0
1614,1614,Goodman & Randolph,GOODMAN ST N & RANDOLPH ST,43.182304,-77.576036,,,,,,0
1615,1615,Goodman & Reynolds,GOODMAN ST N & REYNOLDS AVE,43.189237,-77.576306,,,,,,0
1616,1616,Goodman & Reynolds,COUNTY HWY 108 & REYNOLDS AVE,43.189426,-77.576534,,,,,,0
1617,1617,Goodman & Rocket,GOODMAN ST N & ROCKET ST,43.173867,-77.577128,,,,,,0
1618,1618,Goodman & Rockingham,GOODMAN ST S & ROCKINGHAM ST,43.134648,-77.599074,,,,,,0
1619,1619,Goodman & Rockingham,GOODMAN ST S & ROCKINGHAM ST,43.134379,-77.599084,,,,,,0
1622,1622,Goodman & Tops Plaza,COUNTY HWY 108 & COUNTY HWY 241,43.198142,-77.577074,,,,,,0
1623,1623,Goodman & Webster,GOODMAN ST N & GARSON AVE,43.164127,-77.582394,,,,,,0
1624,1624,Goodman & Willmont,GOODMAN ST N & WILLMONT ST,43.178028,-77.575651,,,,,,0
1625,1625,Goodman & Willmont,GOODMAN ST N & WILLMONT ST,43.177544,-77.575796,,,,,,0
1626,1626,Goodman & Yates,GOODMAN ST N & YATES ST,43.185093,-77.576226,,,,,,0
1627,1627,Goodman & Yates,GOODMAN ST N & YATES ST,43.185145,-77.576067,,,,,,0
1630,1630,Greece Ridge Mall Entrance 9,UNNAMED ST,43.206727,-77.689898,,,,,,0
1631,1631,Greece Ridge Mall Entrance 10,,43.207987,-77.688937,,,,,,0
1635,1635,Greenleaf & DeVille,COUNTY HWY 126 & DEVILLE DR,43.253209,-77.628406,,,,,,0
1636,1636,Greenleaf & Dohrcrest,COUNTY HWY 126 & DEVILLE DR,43.253463,-77.628555,,,,,,0
1637,1637,Greenleaf & Pebbleview,COUNTY HWY 126 & PEBBLEVIEW DR,43.258223,-77.628064,,,,,,0
1638,1638,Greenleaf & Pebbleview,COUNTY HWY 126 & PEBBLEVIEW DR,43.258133,-77.628266,,,,,,0
1639,1639,Greenleaf & Thomasville,COUNTY HWY 126 & THOMASVILLE DR,43.260219,-77.627995,,,,,,0
1640,1640,Greenleaf & Thomasville,COUNTY HWY 126 & THOMASVILLE DR,43.260614,-77.628162,,,,,,0
1641,1641,Greenleaf & Veldor,COUNTY HWY 126 & VELDOR PARK,43.262181,-77.62792,,,,,,0
1642,1642,Greenleaf & Veldor,COUNTY HWY 126 & VELDOR PARK,43.262231,-77.628076,,,,,,0
1643,1643,Greig & Clarissa,GREIG ST & CLARISSA ST,43.145015,-77.616286,,,,,,0
1644,1644,Greig & Frederick Douglass,GREIG ST & FREDERICK DOUGLAS ST,43.146087,-77.616143,,,,,,0
1645,1645,Greystone & 134 Greystone,GREYSTONE LN & VENRAY DR,43.10258,-77.568413,,,,,,0
1647,1647,Greystone & 174 Greystone,GREYSTONE LN & FREDERICK DOUGLAS ST,43.102149,-77.567157,,,,,,0
1648,1648,Greystone & Edgewood,GREYSTONE LN & COUNTY HWY 102,43.101619,-77.565796,,,,,,0
1649,1649,Hamlin Center & Lake,STATE HWY 18 & STATE HWY 19,43.295372,-77.920368,,,,,,0
1650,1650,Hampton & Adeline,HAMPTON BLVD & ADELINE RD,43.245134,-77.629028,,,,,,0
1651,1651,Hampton & Denise,HAMPTON BLVD & DENISE RD,43.241911,-77.629172,,,,,,0
1653,1653,Hampton & Latta,HAMPTON BLVD & COUNTY HWY 126,43.252281,-77.628603,,,,,,0
1654,1654,Hampton & Rumson,HAMPTON BLVD & RUMSON RD,43.249898,-77.628712,,,,,,0
1659,1659,Helendale & Harwick,HELENDALE RD & HARWICK RD,43.174429,-77.544841,,,,,,0
1660,1660,Helendale & Laurelton,HELENDALE RD & LAURELTON RD,43.172827,-77.544741,,,,,,0
1661,1661,Helendale & Queensboro,HELENDALE RD & QUEENSBORO RD,43.176278,-77.545011,,,,,,0
1667,1667,Hinchey & Hamlet,COUNTY HWY 237 & HAMLET CT,43.138501,-77.672275,,,,,,0
1668,1668,Hinchey & Howard,COUNTY HWY 237 & STATE RTE 940L,43.138908,-77.690349,,,,,,0
1671,1671,Hinchey & Lettington,COUNTY HWY 237 & LETTINGTON AVE,43.13886,-77.68043,,,,,,0
1672,1672,Hinchey & Lettington,HINCHEY RD & LETTINGTON AVE,43.138958,-77.680027,,,,,,0
1673,1673,Hinchey & Morncrest,COUNTY HWY 237 & MORNCREST DR,43.138701,-77.67703,,,,,,0
1674,1674,Hinchey & Morncrest,COUNTY HWY 237 & MORNCREST DR,43.138812,-77.676978,,,,,,0
1677,1677,Holley & 180 Holley,HOLLEY ST & RENOUF DR,43.213051,-77.950161,,,,,,0
1678,1678,Holley & 180 Holley,HOLLEY ST & RENOUF DR,43.213321,-77.948058,,,,,,0
1679,1679,Holley & Commencement,HOLLEY ST & UNNAMED ST,43.212785,-77.955244,,,,,,0
1680,1680,Holley & Brockport Crossing,HOLLEY ST & UNNAMED ST,43.212957,-77.954639,,,,,,0
1681,1681,Holley & Brockport Crossing,HOLLEY ST & UNNAMED ST,43.212707,-77.960253,,,,,,0
1682,1682,Holley & Commencement,HOLLEY ST & UNNAMED ST,43.212868,-77.960291,,,,,,0
1685,1685,Howard & 1459 Howard,STATE RTE 940L & ARROWHEAD DR,43.134878,-77.690971,,,,,,0
1687,1687,Howard & Arrrowhead,STATE RTE 940L & ARROWHEAD DR,43.135211,-77.690782,,,,,,0
1688,1688,Howard & Brooklea,STATE RTE 940L & BROOKLEA DR,43.138034,-77.691033,,,,,,0
1691,1691,Howard & Chili,STATE RTE 940L & COUNTY HWY 164,43.131433,-77.690533,,,,,,0
1697,1697,Howard & West Gate Pk,STATE RTE 940L & ELDER ST,43.132881,-77.690931,,,,,,0
1698,1698,Howard & Fairchild,STATE RTE 940L & FAIRCHILD RD,43.161064,-77.691019,,,,,,0
1699,1699,Howard & Gatewood,STATE RTE 940L & GATEWOOD AVE,43.150891,-77.690878,,,,,,0
1700,1700,Howard & Gatewood,STATE RTE 940L & GATEWOOD AVE,43.151129,-77.691081,,,,,,0
1702,1702,Howard & Hinchey,STATE RTE 940L & COUNTY HWY 237,43.138656,-77.69087,,,,,,0
1703,1703,Howard & Kencrest,STATE RTE 940L & KENCREST DR,43.158903,-77.690991,,,,,,0
1704,1704,Howard & Lisa Ann,STATE RTE 940L & LISA ANN DR,43.160844,-77.691219,,,,,,0
1708,1708,Howard & Northmore,STATE RTE 940L & NORTHMORE AVE,43.15509,-77.691139,,,,,,0
1710,1710,Howard & Simmons,STATE RTE 940L & SIMMONS ST,43.158838,-77.691177,,,,,,0
1711,1711,Howard & Spencerport,STATE RTE 940L & COUNTY HWY 117,43.164189,-77.691251,,,,,,0
1712,1712,Howard & Westerleigh,STATE RTE 940L & WESTERLEIGH RD,43.155729,-77.69095,,,,,,0
1715,1715,Hudson & 2057 Hudson,COUNTY HWY 112 & SCHOFIELD RD,43.205554,-77.600829,,,,,,0
1716,1716,Hudson & 2066 Hudson,COUNTY HWY 112 & SCHOFIELD RD,43.205757,-77.600604,,,,,,0
1717,1717,Hudson & Alphonse,HUDSON AVE & ALPHONSE ST,43.176231,-77.59876,,,,,,0
1718,1718,Hudson & Avenue D,HUDSON AVE & AVENUE D,43.180717,-77.599047,,,,,,0
1719,1719,Hudson & Avenue D,HUDSON AVE & AVENUE D,43.180983,-77.599249,,,,,,0
1721,1721,Hudson & Bernard,HUDSON AVE & BERNARD ST,43.177189,-77.598822,,,,,,0
1722,1722,Hudson & Bernard,HUDSON AVE & BERNARD ST,43.177366,-77.599013,,,,,,0
1724,1724,Hudson & Cleon,HUDSON AVE & CLEON ST,43.18311,-77.599259,,,,,,0
1725,1725,Hudson & Cleveland,HUDSON AVE & CLEVELAND ST,43.170739,-77.600784,,,,,,0
1726,1726,Hudson & Clifford,HUDSON AVE & CLIFFORD AVE,43.175097,-77.598986,,,,,,0
1728,1728,Hudson & Dunn,HUDSON AVE & DUNN ST,43.190923,-77.599749,,,,,,0
1729,1729,Hudson & Dunn,HUDSON AVE & DUNN ST,43.190808,-77.5999,,,,,,0
1731,1731,Hudson & Eagle Ridge,COUNTY HWY 112 & EAGLE RIDGE CIR,43.199515,-77.600239,,,,,,0
1732,1732,Hudson & Fairbanks,HUDSON AVE & FAIRBANKS ST,43.182358,-77.599343,,,,,,0
1737,1737,Hudson & Hill Court,COUNTY HWY 112 & HILL COURT CIR,43.198025,-77.600128,,,,,,0
1738,1738,Hudson & Hill Court,COUNTY HWY 112 & HILL COURT CIR,43.198025,-77.600344,,,,,,0
1739,1739,Hudson & Holland,HUDSON AVE & HOLLAND ST,43.16917,-77.601616,,,,,,0
1740,1740,Hudson & Kelly,,43.167733,-77.602067,,,,,,0
1741,1741,Hudson & Kosciusko,HUDSON AVE & KOSCIUSKO ST,43.185033,-77.599375,,,,,,0
1742,1742,Hudson & Long Acre,COUNTY HWY 112 & EAGLE RIDGE CIR,43.200138,-77.600498,,,,,,0
1743,1743,Hudson & Mark,HUDSON AVE & MARK ST,43.17346,-77.599541,,,,,,0
1744,1744,Hudson & Nash,HUDSON AVE & NASH ST,43.167134,-77.601967,,,,,,0
1745,1745,Hudson & Nester,HUDSON AVE & NESTER ST,43.189365,-77.59982,,,,,,0
1746,1746,Hudson & Nester,HUDSON AVE & NESTER ST,43.189164,-77.59964,,,,,,0
1747,1747,Hudson & North,HUDSON AVE & HARRISON ST,43.164187,-77.601893,,,,,,0
1748,1748,Hudson & North,,43.16348,-77.60204,,,,,,0
1749,1749,Hudson & Norton,HUDSON AVE & NORTON ST,43.187012,-77.599649,,,,,,0
1750,1750,Hudson & Norton,,43.186618,-77.599545,,,,,,0
1751,1751,Hudson & Peckham,HUDSON AVE & PECKHAM ST,43.185768,-77.599555,,,,,,0
1752,1752,Hudson & Ridge,COUNTY HWY 112 & COUNTY HWY 241,43.196532,-77.600267,,,,,,0
1753,1753,Hudson & Ridge Hudson Plaza,COUNTY HWY 112 & COUNTY HWY 241,43.195919,-77.59999,,,,,,0
1754,1754,Hudson & Seneca Manor,COUNTY HWY 112 & SENECA MANOR DR,43.193953,-77.600175,,,,,,0
1756,1756,Hudson & Upper Falls,HUDSON AVE & UPPER FALLS BLVD,43.170945,-77.600808,,,,,,0
1757,1757,Hudson & Vose,HUDSON AVE & VOSE ST,43.172928,-77.599953,,,,,,0
1759,1759,Hudson & Walmart,HUDSON AVE & WALMART HUDSON CIR,43.194356,-77.599913,,,,,,0
1760,1760,Hudson & Weaver,HUDSON AVE & WEAVER ST,43.184144,-77.599464,,,,,,0
1763,1763,Hudson & Wilson,HUDSON AVE & WILSON ST,43.168677,-77.601659,,,,,,0
1764,1764,Hudson Ridge Towers,SENECA MANOR DR,43.193091,-77.603074,,,,,,0
1765,1765,Humboldt & 104 Humboldt,HUMBOLDT ST & UNNAMED ST,43.154749,-77.565576,,,,,,0
1766,1766,Humboldt & 40 Humboldt,HUMBOLDT ST & UNNAMED ST,43.154756,-77.565816,,,,,,0
1768,1768,Humboldt & Carlson,HUMBOLDT ST & CARLSON RD,43.153774,-77.558961,,,,,,0
1769,1769,Humboldt & Coventry,HUMBOLDT ST & COVENTRY AVE,43.154222,-77.563918,,,,,,0
1770,1770,Humboldt & Coventry,HUMBOLDT ST & COVENTRY AVE,43.154173,-77.563478,,,,,,0
1771,1771,Humboldt & Culver,HUMBOLDT ST & CULVER RD,43.155397,-77.567806,,,,,,0
1775,1775,Humboldt & Floverton,HUMBOLDT ST & FLOVERTON ST,43.153411,-77.553903,,,,,,0
1776,1776,Humboldt & Marion,HUMBOLDT ST & MARION ST,43.153736,-77.55572,,,,,,0
1777,1777,Humboldt & Marion,HUMBOLDT ST & MARION ST,43.15381,-77.555403,,,,,,0
1780,1780,Humboldt & Culver,HUMBOLDT ST & CULVER RD,43.155073,-77.566994,,,,,,0
1782,1782,Humboldt & Winton,HUMBOLDT ST & WINTON RD N,43.152693,-77.551595,,,,,,0
1783,1783,Humboldt & Winton,HUMBOLDT ST & WINTON RD N,43.152897,-77.551712,,,,,,0
1784,1784,Hylan & 2nd Mall Entrance,COUNTY HWY 263 & UNNAMED ST,43.083279,-77.629806,,,,,,0
1785,1785,Hylan & Wegmans Entrance,COUNTY HWY 263 & UNNAMED ST,43.083451,-77.629543,,,,,,0
1786,1786,Independence & Buffalo,INDEPENDENCE ST & STATE HWY 33,43.152073,-77.657807,,,,,,0
1787,1787,Independence & Handy,INDEPENDENCE ST & HANDY ST,43.152598,-77.657634,,,,,,0
1788,1788,Independence & Maple,,43.155193,-77.657776,,,,,,0
1789,1789,Independence & Maple,INDEPENDENCE ST & MAPLE ST,43.155171,-77.657617,,,,,,0
1797,1797,Inter Campus & Library,UNNAMED ST & STATE HWY 386,43.127723,-77.627104,,,,,,0
1798,1798,Intercampus & Trustee,UNNAMED ST & STATE HWY 386,43.125422,-77.628993,,,,,,0
1799,1799,Intercampus & Wilson,UNNAMED ST & STATE HWY 386,43.131604,-77.624419,,,,,,0
1800,1800,Intercampus & Hutchison,UNNAMED ST & STATE HWY 386,43.125633,-77.62861,,,,,,0
1803,1803,Irondequoit Plaza,,43.208985,-77.601117,,,,,,0
1806,1806,Jay & Ames,JAY ST & AMES ST,43.159406,-77.643828,,,,,,0
1807,1807,Jay & Ames,JAY ST & AMES ST,43.15925,-77.643864,,,,,,0
1809,1809,Jay & Child,JAY ST & CHILD ST,43.159469,-77.638633,,,,,,0
1810,1810,Jay & Child,JAY ST & CHILD ST,43.15935,-77.638277,,,,,,0
1811,1811,Jay & Colvin,JAY ST & COLVIN ST,43.159378,-77.641211,,,,,,0
1812,1812,Jay & Colvin,JAY ST & COLVIN ST,43.159269,-77.641449,,,,,,0
1814,1814,Jay & Glide,JAY ST & GLIDE ST,43.159424,-77.653988,,,,,,0
1815,1815,Jay & Glide,JAY ST & GLIDE ST,43.159298,-77.653748,,,,,,0
1816,1816,Jay & Grape,JAY ST & GRAPE ST,43.159359,-77.62937,,,,,,0
1817,1817,Jay & Hague,JAY ST & HAGUE ST,43.159414,-77.646499,,,,,,0
1818,1818,Jay & Hague,JAY ST & HAGUE ST,43.159275,-77.646942,,,,,,0
1819,1819,Jay & Halford,JAY ST & HALFORD ST,43.159349,-77.657133,,,,,,0
1825,1825,Jay & Mt Read,JAY ST & FAIRGATE ST,43.159459,-77.658972,,,,,,0
1826,1826,Jay & Orchard,,43.159471,-77.634297,,,,,,0
1827,1827,Jay & Orchard,JAY ST & ORCHARD ST,43.159364,-77.634862,,,,,,0
1828,1828,Jay & Pool,JAY ST & POOL ST,43.159417,-77.651496,,,,,,0
1829,1829,Jay & Pool,JAY ST & POOL ST,43.159331,-77.651234,,,,,,0
1830,1830,Jay & Saxton,JAY ST & SAXTON ST,43.159352,-77.632062,,,,,,0
1831,1831,Jay & Saxton,,43.159499,-77.632604,,,,,,0
1833,1833,Jay & Walnut,JAY ST & WALNUT ST,43.159364,-77.630946,,,,,,0
1834,1834,Jay & Walnut,,43.159482,-77.630602,,,,,,0
1835,1835,Jay & Wetmore,JAY ST & HALFORD ST,43.159427,-77.656878,,,,,,0
1836,1836,Jay & Whitney,JAY ST & WHITNEY ST,43.159468,-77.636574,,,,,,0
1839,1839,Jefferson & Bartlett,JEFFERSON AVE & BARTLETT ST,43.142706,-77.628911,,,,,,0
1840,1840,Jefferson & Bartlett,JEFFERSON AVE & BARTLETT ST,43.142884,-77.629083,,,,,,0
1841,1841,Jefferson & Cady,JEFFERSON AVE & CADY ST,43.14576,-77.628922,,,,,,0
1842,1842,Jefferson & Cady,JEFFERSON AVE & CADY ST,43.145985,-77.629086,,,,,,0
1843,1843,Jefferson & Champlain,JEFFERSON AVE & CHAMPLAIN ST,43.144878,-77.62909,,,,,,0
1844,1844,Jefferson & Champlain,JEFFERSON AVE & CHAMPLAIN ST,43.144662,-77.628929,,,,,,0
1845,1845,Jefferson & Columbia,JEFFERSON AVE & COLUMBIA AVE,43.141798,-77.629032,,,,,,0
1846,1846,Jefferson & Columbia,JEFFERSON AVE & COLUMBIA AVE,43.141559,-77.628888,,,,,,0
1848,1848,Jefferson & Flint,JEFFERSON AVE & FLINT ST,43.139942,-77.629088,,,,,,0
1849,1849,Jefferson & Flint,JEFFERSON AVE & FLINT ST,43.139792,-77.628872,,,,,,0
1850,1850,Jefferson & Frost,546 JEFFERSON AVE & RUFF AL,43.144027,-77.628899,,,,,,0
1851,1851,Jefferson & Frost,JEFFERSON AVE & FROST AVE,43.143905,-77.629069,,,,,,0
1852,1852,Jefferson & Magnolia,JEFFERSON AVE & MAGNOLIA ST,43.137758,-77.628871,,,,,,0
1853,1853,Jefferson & Magnolia,JEFFERSON AVE & MAGNOLIA ST,43.13808,-77.629031,,,,,,0
1854,1854,Jefferson & Samuel McCree,JEFFERSON AVE & DR SAMUEL MCCREE WAY,43.146912,-77.628931,,,,,,0
1855,1855,Jefferson & Seward,JEFFERSON AVE & SEWARD ST,43.136244,-77.628868,,,,,,0
1856,1856,Jefferson & Seward,,43.136597,-77.628946,,,,,,0
1858,1858,Jefferson & 1225 Jefferson,STATE HWY 252 & CONNECTING RD,43.086964,-77.598112,,,,,,0
1859,1859,Jefferson & 1530 Jefferson,STATE HWY 252 & CONNECTING RD,43.087197,-77.586244,,,,,,0
1860,1860,Jefferson & 1555 Jefferson,STATE HWY 252 & CONNECTING RD,43.086958,-77.586338,,,,,,0
1861,1861,Jefferson & 300 Jefferson,STATE HWY 252 & CONNECTING RD,43.092042,-77.650964,,,,,,0
1862,1862,Jefferson & 310 Jefferson,STATE HWY 252 & CONNECTING RD,43.092085,-77.650286,,,,,,0
1863,1863,Jefferson & 333 Jefferson,STATE HWY 252 & CONNECTING RD,43.091361,-77.647952,,,,,,0
1864,1864,Jefferson & 339 Jefferson,STATE HWY 252 & CONNECTING RD,43.091174,-77.648109,,,,,,0
1865,1865,Jefferson & 589 Jefferson,STATE HWY 252 & JAY SCUTTI BLVD,43.08719,-77.628055,,,,,,0
1866,1866,Jefferson & 755 Jefferson,STATE HWY 252 & MANUFACTURERS BLVD,43.087243,-77.621905,,,,,,0
1867,1867,Jefferson & 755 Jefferson,STATE HWY 252 & CONNECTING RD,43.086977,-77.621628,,,,,,0
1868,1868,Jefferson & Brighton Henrietta TL,STATE HWY 252 & COUNTY HWY 85,43.092812,-77.653138,,,,,,0
1869,1869,Jefferson & Clay,STATE HWY 252 & CONNECTING RD,43.087277,-77.616715,,,,,,0
1870,1870,Jefferson & Clay,STATE HWY 252 & CLAY RD,43.087005,-77.617692,,,,,,0
1871,1871,Jefferson & E Henrietta,STATE HWY 252 & STATE HWY 15A,43.087351,-77.610736,,,,,,0
1874,1874,Jefferson & E Henrietta,STATE HWY 252 & CONNECTING RD,43.087072,-77.607292,,,,,,0
1876,1876,Jefferson & Jefferson Plaza,,43.089681,-77.642299,,,,,,0
1878,1878,Jefferson & Ridgeland,STATE HWY 252 & RIDGELAND RD,43.087222,-77.601944,,,,,,0
1880,1880,Jefferson & Saginaw Plaza,STATE HWY 252 & JEFFERSON RD,43.086933,-77.593105,,,,,,0
1881,1881,Jefferson & South Town Plaza,STATE HWY 252 & SOUTH TOWNE PLZ,43.089656,-77.64308,,,,,,0
1882,1882,Jefferson & Winton,STATE HWY 252 & SOUTH TOWNE PLZ,43.087243,-77.582941,,,,,,0
1884,1884,Jewish Home,DRIVEWAY & SOUTH TOWNE PLZ,43.106228,-77.579217,,,,,,0
1892,1892,John & Jefferson,JOHN ST & HIGHPOWER RD,43.092115,-77.654131,,,,,,0
1893,1893,John & Jefferson,JOHN ST & HIGHPOWER RD,43.090005,-77.655,,,,,,0
1899,1899,John & Wiltsie,,43.083313,-77.65883,,,,,,0
1900,1900,Joseph & Avenue D,JOSEPH AVE & AVENUE D,43.180511,-77.607924,,,,,,0
1901,1901,Joseph & Avenue D,,43.18075,-77.607999,,,,,,0
1902,1902,Joseph & Baden,JOSEPH AVE & BADEN ST,43.168471,-77.607216,,,,,,0
1906,1906,Joseph & Central,JOSEPH AVE & CENTRAL AVE,43.162975,-77.60706,,,,,,0
1907,1907,Joseph & Central,JOSEPH AVE & CENTRAL AVE,43.163209,-77.606836,,,,,,0
1908,1908,Joseph & Clifford,JOSEPH AVE & CLIFFORD AVE,43.174934,-77.607512,,,,,,0
1909,1909,Joseph & Clifford,JOSEPH AVE & CLIFFORD AVE,43.175225,-77.607684,,,,,,0
1910,1910,Joseph & Central,JOSEPH AVE & CENTRAL AVE,43.162068,-77.607109,,,,,,0
1912,1912,Joseph & Kelly,JOSEPH AVE & KELLY ST,43.16716,-77.607158,,,,,,0
1913,1913,Joseph & Laser,JOSEPH AVE & LASER ST,43.182256,-77.608026,,,,,,0
1915,1915,Joseph & Norton,JOSEPH AVE & NORTON ST,43.186223,-77.608279,,,,,,0
1917,1917,Joseph & Rauber,JOSEPH AVE & RAUBER ST,43.172804,-77.607628,,,,,,0
1918,1918,Joseph & Rauber,JOSEPH AVE & WILLIAM WARFIELD DR,43.172436,-77.607421,,,,,,0
1920,1920,Joseph & Upper Falls,JOSEPH AVE & UPPER FALLS BLVD,43.17135,-77.607565,,,,,,0
1921,1921,Joseph & Upper Falls,JOSEPH AVE & UPPER FALLS BLVD,43.170892,-77.607407,,,,,,0
1922,1922,Joseph & Vienna,JOSEPH AVE & VIENNA ST,43.169534,-77.607456,,,,,,0
1924,1924,Joseph & Ward,JOSEPH AVE & WARD ST,43.165462,-77.607044,,,,,,0
1925,1925,Joseph & Ward,JOSEPH AVE & WARD ST,43.165235,-77.607161,,,,,,0
1926,1926,Joseph & Weaver,JOSEPH AVE & WEAVER ST,43.183693,-77.608128,,,,,,0
1927,1927,Joseph & Wilkins,,43.178422,-77.607836,,,,,,0
1928,1928,Joseph & Wilkins,JOSEPH AVE & WILKINS ST,43.178256,-77.607792,,,,,,0
1929,1929,Joseph & Wolfert,JOSEPH AVE & LANG ST,43.184933,-77.608362,,,,,,0
1930,1930,Joseph & Zimbrich,JOSEPH AVE & ZIMBRICH ST,43.183243,-77.608228,,,,,,0
1934,1934,Lattimore & Elmwood,LATTIMORE RD & CRITTENDEN BLVD,43.122351,-77.629176,,,,,,0
1937,1937,Kings Hwy & 100 Kings Hwy,KINGS HWY S & KEARNEY DR,43.206422,-77.578556,,,,,,0
1938,1938,Kings Hwy & Bishop Kearney,KINGS HWY S & BISHOP KEARNEY CIR,43.202751,-77.577397,,,,,,0
1939,1939,Kings Hwy & Edgebrook,KINGS HWY S & EDGEBROOK LN,43.207295,-77.579184,,,,,,0
1940,1940,Kings Hwy & Edgebrook,KINGS HWY S & EDGEBROOK LN,43.207177,-77.578935,,,,,,0
1941,1941,Kings Hwy & Kings Gate N,KINGS HWY S & KINGS GATE N,43.20561,-77.578234,,,,,,0
1942,1942,Kings Hwy & Kings Gate N,KINGS HWY S & KINGS GATE N,43.205981,-77.578579,,,,,,0
1945,1945,Kings Hwy & Parker,KINGS HWY S & COUNTY HWY 118,43.203938,-77.577704,,,,,,0
1946,1946,Kings Hwy & Parker,KINGS HWY S & COUNTY HWY 118,43.20378,-77.577347,,,,,,0
1947,1947,Kings Hwy & Queens,KINGS HWY S & QUEENS LN,43.210157,-77.580038,,,,,,0
1948,1948,Kings Hwy & Ridge,KINGS HWY S & COUNTY HWY 108,43.199713,-77.57697,,,,,,0
1952,1952,Krieger & 1001-1019 Krieger,KRIEGER RD & HARD RD,43.204712,-77.417619,,,,,,0
1953,1953,Krieger & 101-170 Krieger,,43.209324,-77.418116,,,,,,0
1954,1954,Krieger & 201-222 Krieger,KRIEGER RD & FOSTER DR,43.208661,-77.417428,,,,,,0
1956,1956,Krieger & 601-629 Krieger,KRIEGER RD & FOSTER DR,43.206684,-77.417406,,,,,,0
1958,1958,Lac De Ville & Lac Kine N,LAC DE VILLE BLVD & LACKINE DR,43.117817,-77.590772,,,,,,0
1959,1959,Lac De Ville & Lac Kine S,LAC DE VILLE BLVD & LACKINE DR,43.116035,-77.591996,,,,,,0
1960,1960,Lac De Ville & Rue De Ville,LAC DE VILLE BLVD & RUE DE VL,43.121418,-77.59054,,,,,,0
1962,1962,LaGrange & 110 La Grange,LAGRANGE AVE & JUGHANDLE,43.185913,-77.653209,,,,,,0
1964,1964,LaGrange & Arborwood Cres,LAGRANGE AVE & ARBORWOOD LN,43.189414,-77.653208,,,,,,0
1966,1966,LaGrange & Driving Park,LAGRANGE AVE & ARBORWOOD CRES,43.183605,-77.653192,,,,,,0
1968,1968,LaGrange & Electric,LAGRANGE AVE & ELECTRIC AVE,43.190591,-77.653193,,,,,,0
1970,1970,LaGrange & Ridgeway,,43.193717,-77.65317,,,,,,0
1973,1973,Lake & 3877 Lake,LAKE AVE & DENISE RD,43.241078,-77.620861,,,,,,0
1974,1974,Lake & 4138 Lake,LAKE AVE & UNNAMED ST,43.246097,-77.617243,,,,,,0
1975,1975,Lake & Alameda,,43.18724,-77.630619,,,,,,0
1976,1976,Lake & Ambrose,,43.167705,-77.62553,,,,,,0
1977,1977,Lake & Birr,,43.185986,-77.630902,,,,,,0
1979,1979,Lake & Boxart,LAKE AVE & BOXART ST,43.226174,-77.626613,,,,,,0
1980,1980,Lake & Britton,LAKE AVE & COUNTY HWY 101,43.235302,-77.624212,,,,,,0
1981,1981,Charlotte Middle School,LAKE AVE & UNNAMED ST,43.246218,-77.617392,,,,,,0
1982,1982,Lake & Charlotte River Homes,LAKE AVE & UNNAMED ST,43.25516,-77.610803,,,,,,0
1983,1983,Lake & Brockport Chase Pitkin,STATE HWY 19 & CRESTVIEW DR,43.200221,-77.943211,,,,,,0
1984,1984,Lake & Cheltenham,LAKE AVE & CHELTENHAM RD,43.221391,-77.627958,,,,,,0
1986,1986,Lake & Clay,,43.191198,-77.629671,,,,,,0
1987,1987,Lake & Corrigan,LAKE AVE & CORRIGAN ST,43.25708,-77.609404,,,,,,0
1988,1988,Lake & Crestview Brockport,STATE HWY 19 & CRESTVIEW DR,43.199953,-77.943061,,,,,,0
1989,1989,Lake & Denise,LAKE AVE & DENISE RD,43.241266,-77.620499,,,,,,0
1990,1990,Lake & Driving Park,,43.180622,-77.631861,,,,,,0
1991,1991,Lake & opp Selye,,43.181667,-77.631667,,,,,,0
1992,1992,Lake & Ellis - Brockport,STATE HWY 19 & ELLIS DR,43.203815,-77.942131,,,,,,0
1995,1995,Lake & Emerson,STATE RTE 940M & EMERSON ST,43.173612,-77.629179,,,,,,0
1996,1996,Lake & Emerson,,43.173747,-77.629059,,,,,,0
1997,1997,Lake & Flower City,,43.192515,-77.629302,,,,,,0
1998,1998,Lake & Flower City,,43.192873,-77.629277,,,,,,0
2001,2001,Lake & Glendale,,43.177014,-77.63072,,,,,,0
2003,2003,Lake & Glenwood,,43.177515,-77.631116,,,,,,0
2004,2004,Lake & Grassmere,LAKE AVE & GRASSMERE PARK,43.237361,-77.623264,,,,,,0
2005,2005,Lake & Hewitt,LAKE AVE & HEWITT ST,43.244391,-77.618267,,,,,,0
2006,2006,Lake & Hincher,LAKE AVE & HINCHER ST,43.256782,-77.609892,,,,,,0
2007,2007,Lake & Holy Cross Church,,43.253032,-77.612521,,,,,,0
2009,2009,Lake & Holy Sepulchre Cemetery Ent,LAKE AVE & ST BERNARDS CIR,43.213737,-77.62993,,,,,,0
2010,2010,Lake & Holy Sepuchre Cemetary N Ent,LAKE AVE & ST BERNARDS CIR,43.21414,-77.629708,,,,,,0
2011,2011,Lake & Jones,,43.167534,-77.625604,,,,,,0
2012,2012,Lake & Kemphurst,LAKE AVE & KEMPHURST RD,43.232508,-77.625275,,,,,,0
2015,2015,Lake & Lake Tower Apts,STATE RTE 940M & PHELPS AVE,43.170588,-77.627645,,,,,,0
2016,2016,Lake & Lake Vista Apts,,43.240123,-77.621296,,,,,,0
2017,2017,Lake & Lake Vista Apts,LAKE AVE & LAKE VISTA CT,43.240154,-77.621455,,,,,,0
2018,2018,Lake & Lakeland,LAKE AVE & LAKELAND AVE,43.255718,-77.610617,,,,,,0
2019,2019,Lake & 1024 Lake Ave,STATE RTE 940M & LAKEVIEW PARK,43.183986,-77.631248,,,,,,0
2021,2021,Lake & Latta,LAKE AVE & LATTA RD,43.251554,-77.613381,,,,,,0
2022,2022,Lake & Latta,LAKE AVE & LATTA RD,43.251873,-77.613355,,,,,,0
2025,2025,Lake & Lexington,,43.178867,-77.631525,,,,,,0
2026,2026,Lake & Lexington,STATE RTE 940M & LEXINGTON AVE,43.179404,-77.631823,,,,,,0
2027,2027,Lake & Lorimer,STATE RTE 940M & LORIMER ST,43.169139,-77.626834,,,,,,0
2028,2028,Lake & Lorimer,,43.169235,-77.626681,,,,,,0
2030,2030,Lake & Lot 18 Kodak,LAKE AVE & REDWOOD RD,43.197309,-77.628019,,,,,,0
2031,2031,Lake & Lot 18 Kodak,LAKE AVE & REDWOOD RD,43.196828,-77.628408,,,,,,0
2033,2033,Lake & Lyell,,43.164903,-77.6235,,,,,,0
2035,2035,Lake & Maplewood,,43.202169,-77.6281,,,,,,0
2036,2036,Lake & Maplewood,,43.201829,-77.627865,,,,,,0
2037,2037,Lake & Merrill,LAKE AVE & MERRILL ST,43.20493,-77.628901,,,,,,0
2038,2038,Lake & Merrill,,43.20464,-77.628548,,,,,,0
2040,2040,Lake & Nazareth Academy,STATE RTE 940M & ELDORADO PL,43.183488,-77.631616,,,,,,0
2043,2043,Lake & Lake Ontario State Pky,LAKE AVE & RAMP,43.24996,-77.614738,,,,,,0
2044,2044,Lake & Petten,,43.2466,-77.616897,,,,,,0
2045,2045,Lake & Phelps,STATE RTE 940M & PHELPS AVE,43.171899,-77.628333,,,,,,0
2046,2046,Lake & Phelps,,43.17158,-77.627945,,,,,,0
2048,2048,Lake & Railroad,STATE HWY 259 & POLLARD AVE,43.289756,-77.792951,,,,,,0
2049,2049,Lake & Ravine,STATE RTE 940M & RAVINE AVE,43.175858,-77.63034,,,,,,0
2050,2050,Lake & Ravine,,43.175546,-77.629964,,,,,,0
2051,2051,Lake & Redwood,LAKE AVE & REDWOOD RD,43.195785,-77.628401,,,,,,0
2052,2052,Lake & Revere,LAKE AVE & REVERE ST,43.227498,-77.626514,,,,,,0
2053,2053,Lake & Revere,LAKE AVE & REVERE ST,43.227816,-77.626653,,,,,,0
2054,2054,Lake & Ridge,LAKE AVE & LAPHAM ST,43.195193,-77.628773,,,,,,0
2055,2055,Lake & Ridgeway,STATE RTE 940M & STATE HWY 104,43.194236,-77.628754,,,,,,0
2056,2056,Lake & Ridgeway,STATE RTE 940M & RIDGEWAY AVE,43.19356,-77.629233,,,,,,0
2057,2057,Lake & Ridgeway,,43.193626,-77.629006,,,,,,0
2059,2059,Lake & Riverside,,43.190804,-77.629708,,,,,,0
2060,2060,Lake & Riverside Cemetary,LAKE AVE & ST BERNARDS CIR,43.217122,-77.629575,,,,,,0
2061,2061,Lake & Riverside Cemetary,LAKE AVE & ST BERNARDS CIR,43.217534,-77.629724,,,,,,0
2064,2064,Lake & Rose,,43.186954,-77.630607,,,,,,0
2065,2065,Lake & Seneca,,43.189354,-77.630053,,,,,,0
2066,2066,Lake & Seneca,,43.188664,-77.630275,,,,,,0
2067,2067,Lake & St Bernards Park Apts,LAKE AVE & ST BERNARDS CIR,43.210263,-77.629927,,,,,,0
2068,2068,Lake & St Bernards Park Apts,LAKE AVE & ST BERNARDS CIR,43.2082,-77.629547,,,,,,0
2069,2069,Lake & St Bernards Park Apts,LAKE AVE & ST BERNARDS CIR,43.210112,-77.629719,,,,,,0
2070,2070,Lake & St Bernards Park Apts,LAKE AVE & ST BERNARDS CIR,43.209175,-77.629934,,,,,,0
